,Schools in Building,Prop N,Vio N,ENGroupA,RangeA,AvgOfMajor N,AvgOfOth N,AvgOfNoCrim N,AvgOfProp N,AvgOfVio N,Postcode,Latitude,Longitude,Community Board,Council District,Census Tract,BIN,BBL,NTA
0,P.S. 076 A. Philip Randolph,2.0,0.0,4C,501-750,0.28,1.11,1.74,0.75,0.53,10035.0,40.802419,-73.942634,11.0,9.0,198.0,1053968.0,1017470001.0,East Harlem North                                                          
1,P.S. 092 Mary McLeod Bethune I St. Hope Leadership Academy Charter ,1.0,3.0,3C,251-500,0.27,0.9,1.67,0.63,0.44,10031.0,40.829832,-73.944789,9.0,7.0,237.0,1087824.0,1020840129.0,Hamilton Heights                                                           
2,P.S. 057 Crescent |  Frederick Douglass Academy V. Middle School |  2111 CROTONA AVENUE CONSOLIDATED LOCATION,,,2C,1-250,,,,,,10459.0,40.820403,-73.898912,2.0,17.0,87.0,2005348.0,2026960085.0,Longwood                                                                   
3,P.S. 058,2.0,0.0,4C,501-750,0.28,1.11,1.74,0.75,0.53,10459.0,40.820403,-73.898912,2.0,17.0,87.0,2005348.0,2026960085.0,Longwood                                                                   
4,P.S. 059 The Community School of Technology,1.0,0.0,4C,501-750,0.28,1.11,1.74,0.75,0.53,10459.0,40.820403,-73.898912,2.0,17.0,87.0,2005348.0,2026960085.0,Longwood                                                                   
5,J.H.S. 098 Herman Ridder |  Explorations Academy  |    Bronx Envision Academy |  1619 BOSTON ROAD CONSOLIDATED LOCATION,,,2C,1-250,,,,,,10459.0,40.827315,-73.897612,2.0,17.0,131.0,2005276.0,2026920014.0,Longwood                                                                   
6,Bronx Latin|Bronx Career and College Preparatory High School|Dr. Richard Izquierdo Health and Science Charter S|800 HOME STREET CONSOLIDATED LOCATION,,,3C,251-500,,,,,,10475.0,40.864676,-73.824303,10.0,12.0,302.0,2072352.0,2051350200.0,Co-op City                                                                 
7,Morris Academy for Collaborative Studies |  Bronx International High School |  School for Excellence |  High School for Violin and Dance |  1110 BOSTON ROAD CONSOLIDATED LOCATION,,,3C,251-500,,,,,,10459.0,40.823532,-73.898872,2.0,17.0,12901.0,2005366.0,2026980012.0,Longwood                                                                   
8,Morris Academy for Collaborative Studies |  Bronx International High School |  School for Excellence |  High School for Violin and Dance |  1110 BOSTON ROAD CONSOLIDATED LOCATION,,,3C,251-500,,,,,,10459.0,40.823532,-73.898872,2.0,17.0,12901.0,2005366.0,2026980012.0,Longwood                                                                   
9,Morris Academy for Collaborative Studies |  Bronx International High School |  School for Excellence |  High School for Violin and Dance |  1110 BOSTON ROAD CONSOLIDATED LOCATION,1.0,5.0,7C,1251-1500,0.64,3.02,5.77,1.72,1.54,10459.0,40.823532,-73.898872,2.0,17.0,12901.0,2005366.0,2026980012.0,Longwood                                                                   
10,Arturo A. Schomburg Satellite Academy Bronx|  Bronx Regional High School|  ROADS Charter School II|  1010 REV. J. A. POLITE AVENUE CONSOLIDATED LOCATION,,,2C,1-250,,,,,,10459.0,40.823532,-73.898872,2.0,17.0,12901.0,2005366.0,2026980012.0,Longwood                                                                   
11,P.S. 051 Elias Howe,1.0,0.0,3C,251-500,0.27,0.9,1.67,0.63,0.44,10039.0,40.826126,-73.937982,10.0,9.0,236.0,1060596.0,1020360047.0,Central Harlem North-Polo Grounds                                          
12,P.S. M079 - Horan School,1.0,0.0,3C,251-500,0.27,0.9,1.67,0.63,0.44,10029.0,40.793194,-73.942548,11.0,8.0,180.0,1052436.0,1016590012.0,East Harlem North                                                          
13,P.S. 264 BAY RIDGE ELEMENTARY SCHOOL FOR THE ARTS,0.0,0.0,3C,251-500,0.27,0.9,1.67,0.63,0.44,11205.0,40.696324,-73.97578,2.0,35.0,211.0,3057942.0,3020280001.0,Fort Greene                                                                
14,P.S. 048 Mapleton,0.0,0.0,4C,501-750,0.28,1.11,1.74,0.75,0.53,11204.0,40.621871,-73.987396,12.0,44.0,244.0,3132140.0,3055190001.0,Borough Park                                                               
15,River East Elementary |  P.S. 206 Jose Celso Barbosa |  508 EAST 120 STREET CONSOLIDATED LOCATION,,,3C,251-500,,,,,,10026.0,40.797874,-73.949699,10.0,9.0,186.0,1051410.0,1015950015.0,Central Harlem South                                                       
16,J.H.S. 078 Roy H. Mann |SUCCESS ACADEMY CHARTER SCHOOL - BERGEN BEACH(BS)  | CONSOLIDATED LOCATION,,,3C,251-500,,,,,,11234.0,40.621224,-73.91287,18.0,46.0,69602.0,3236496.0,3083880002.0,Georgetown-Marine Park-Bergen Beach-Mill Basin                             
17,Forsyth Satellite Academy |  Cascades High School |  198 FORSYTH STREET CONSOLIDATED LOCATION,,,2C,1-250,,,,,,10038.0,40.711442,-74.000851,1.0,1.0,29.0,1001388.0,1001130100.0,Chinatown                                                                  
18,South Brooklyn Community High School,2.0,0.0,2C,1-250,0.24,0.71,1.71,0.51,0.32,11215.0,40.676668,-73.985258,6.0,39.0,119.0,3007707.0,3004550001.0,Park Slope-Gowanus                                                         
19,"P.S. 019 Asher Levy |  Technology, Arts, and Sciences Studio |  185 1 AVENUE CONSOLIDATED LOCATION",,,2C,1-250,,,,,,10003.0,40.729636,-73.983818,3.0,2.0,40.0,1006478.0,1004530034.0,East Village                                                               
20,47 The American Sign Language and English Secondar |  The 47 American Sign Language & English Lower Scho |  223 EAST 23 STREET CONSOLIDATED LOCATION,,,2C,1-250,,,,,,10010.0,40.738548,-73.982455,6.0,2.0,64.0,,,Gramercy                                                                   
21,Brooklyn School for Global Studies | Success Academy C harter School- Cobble Hill |   School for International Studies |  284 BALTIC STREET CONSOLIDATED LOCATION,,,4C,501-750,,,,,,11201.0,40.685419,-73.993351,6.0,33.0,69.0,3006401.0,3004020001.0,DUMBO-Vinegar Hill-Downtown Brooklyn-Boerum Hill                           
22,New York City Lab Middle School for Collaborative |  N.Y.C. Lab School for Collaborative Studies |  N.Y.C. Museum School |  333 WEST  17 STREET CONSOLIDATED LOCATION,,,4C,501-750,,,,,,10011.0,40.742129,-74.002198,4.0,3.0,83.0,1079152.0,1007410010.0,Hudson Yards-Chelsea-Flatiron-Union Square                                 
23,Pathways in Technology Early College High School  |  Academy for Health Careers |  150 ALBANY AVENUE CONSOLIDATED LOCATION,,,4C,501-750,,,,,,11213.0,40.675612,-73.938843,8.0,36.0,311.0,3030553.0,3012160046.0,Crown Heights North                                                        
24,"Academy for College Preparation and Career Explora |  Academy of Hospitality and Tourism |  Erasmus Yabc |  High School for Youth and Community Development at |  High School for Service & Learning at Erasmus |  Science, Technology and Research Early College Hig |  911 FLATBUSH AVENUE CONSOLIDATED LOCATION",,,4C,501-750,,,,,,11226.0,40.649787,-73.95855,14.0,40.0,794.0,3336215.0,3051030010.0,Erasmus                                                                    
25,P.S. 134 Henrietta Szold |  293 EAST BROADWAY CONSOLIDATED LOCATION,0.0,0.0,3C,251-500,0.27,0.9,1.67,0.63,0.44,10030.0,40.817372,-73.947712,10.0,9.0,22102.0,1059460.0,1019600001.0,Central Harlem North-Polo Grounds                                          
26,Middle School for Art and Philosophy|  KINGS COLLEGIATE CHARTER SCHOOL(BS)|  1084 LENOX ROAD CONSOLIDATED LOCATION,3.0,0.0,2C,1-250,0.24,0.71,1.71,0.51,0.32,11212.0,40.658295,-73.920109,17.0,41.0,886.0,3101840.0,3046690037.0,Rugby-Remsen Village                                                       
27,Marta Valle High School |  Lower East Side Preparatory High School |  145 STANTON STREET CONSOLIDATED LOCATION,,,2C,1-250,,,,,,10002.0,40.720581,-73.985645,3.0,1.0,3001.0,1004323.0,1003540080.0,Chinatown                                                                  
28,P.S. 064 Robert Simon |  Earth School |  Tompkins Square Middle School |  600 EAST  6 STREET CONSOLIDATED LOCATION,,,3C,251-500,,,,,,10009.0,40.72438,-73.98138,3.0,2.0,2601.0,1004627.0,1003870001.0,Lower East Side                                                            
29,P.S. 025 Eubie Blake School |  Success Academy Charter School - Bed Stuy 3 |  787 LAFAYETTE AVENUE CONSOLIDATED LOCATION,0.0,0.0,2C,1-250,0.24,0.71,1.71,0.51,0.32,11221.0,40.691037,-73.941342,3.0,36.0,281.0,3049858.0,3017870014.0,Stuyvesant Heights                                                         
30,P.S. K053 |  J.H.S. 088 Peter Rouget |  544 7TH AVENUE CONSOLIDATED LOCATION,,,7C,1251-1500,,,,,,11215.0,40.660024,-73.987637,7.0,38.0,147.0,3331276.0,3008800001.0,Sunset Park West                                                           
31,P.S. 328 Phyllis Wheatley|Hyde Leadership Charter School- Brooklyn|330 ALABAMA AVENUE CONSOLIDATED LOCATION,,,3C,251-500,,,,,,11207.0,40.668167,-73.897835,5.0,42.0,1134.0,3084283.0,3037680001.0,East New York (Pennsylvania Ave)                                           
32,P.S. 052 Sheepshead Bay,0.0,0.0,5C,751-1000,0.38,1.71,2.38,0.98,0.82,11235.0,40.58792,-73.940532,15.0,48.0,600.0,3205435.0,3074740001.0,Sheepshead Bay-Gerritsen Beach-Manhattan Beach                             
33,I.S. 218 Salome Urena |  City College Academy of the Arts |  Middle School 322 |  4600 BROADWAY CONSOLIDATED LOCATION,3.0,0.0,6C,1001-1250,0.57,2.12,3.64,1.39,1.05,10034.0,40.8654,-73.921101,12.0,10.0,293.0,1081910.0,1022260041.0,Marble Hill-Inwood                                                         
34,P.S./I.S. 323 |  Mott Hall Bridges Academy |  210 CHESTER STREET CONSOLIDATED LOCATION,,,3C,251-500,,,,,,11212.0,40.666545,-73.910904,16.0,41.0,924.0,3081442.0,3035420001.0,Brownsville                                                                
35,J.H.S. 052 Inwood |  High School for Excellence and Innovation | INWOOD EARLY COLLEGE FOR HEALTH AND INFORMATION TE|   650 ACADEMY STREET CONSOLIDATED LOCATION,,,2C,1-250,,,,,,10034.0,40.866053,-73.924835,12.0,10.0,291.0,1076776.0,1022330020.0,Marble Hill-Inwood                                                         
36,Fiorello H. LaGuardia High School of Music & Art a,3.0,0.0,11C,2501-3000,3.14,13.0,34.86,8.29,5.29,10022.0,40.75924,-73.967203,6.0,4.0,108.0,1088892.0,1013300013.0,Turtle Bay-East Midtown                                                    
37,"Urban Assembly High School of Music and Art |  Science Skills Center High School for Science, Tec |  Brooklyn International High School |  49 FLATBUSH AVENUE EXTENSION CONSOLIDATED LOCATION",,,3C,251-500,,,,,,11201.0,40.697339,-73.985016,2.0,33.0,15.0,3000216.0,3001200020.0,DUMBO-Vinegar Hill-Downtown Brooklyn-Boerum Hill                           
38,P.S. 044 Marcus Garvey,2.0,1.0,2C,1-250,0.24,0.71,1.71,0.51,0.32,11221.0,40.686592,-73.940747,3.0,36.0,277.0,3051540.0,3018210001.0,Stuyvesant Heights                                                         
39,P.S. 196 Ten Eyck |  M.S. 582 |  207 BUSHWICK AVENUE CONSOLIDATED LOCATION,1.0,0.0,4C,501-750,0.28,1.11,1.74,0.75,0.53,11206.0,40.708723,-73.940002,1.0,34.0,485.0,3071024.0,3030460001.0,Bushwick South                                                             
40,P.S. 226 Alfred De B.Mason,0.0,0.0,6C,1001-1250,0.57,2.12,3.64,1.39,1.05,11204.0,40.62191,-73.995022,11.0,38.0,250.0,3133741.0,3055510018.0,Bensonhurst West                                                           
41,P.S. 288 The Shirley Tanyhill,0.0,1.0,4C,501-750,0.28,1.11,1.74,0.75,0.53,11213.0,40.674794,-73.942639,8.0,36.0,341.0,3031050.0,3012290028.0,Crown Heights North                                                        
42,The Maurice Sendak Community School,0.0,0.0,3C,251-500,0.27,0.9,1.67,0.63,0.44,11211.0,40.705898,-73.955611,1.0,33.0,529.0,3379706.0,3022070002.0,Williamsburg                                                               
43,"High School for Arts, Imagination and Inquiry |  Urban Assembly School for Media Studies, The |  High School for Law, Advocacy and Community Justic |  High School of Arts and Technology |  Manhattan / Hunter Science High School |  122 AMSTERDAM AVENUE CONSOLIDATED LOCATION",,,3C,251-500,,,,,,10023.0,40.774351,-73.984753,7.0,6.0,151.0,1030343.0,1011570025.0,Lincoln Square                                                             
44,P.S. 307 Daniel Hale Williams |  Satellite West Middle School |  209 YORK STREET CONSOLIDATED LOCATION,,,3C,251-500,,,,,,11201.0,40.701343,-73.982314,2.0,33.0,21.0,3000158.0,3000560007.0,DUMBO-Vinegar Hill-Downtown Brooklyn-Boerum Hill                           
45,P.S. K053 |  J.H.S. 088 Peter Rouget |  544 7TH AVENUE CONSOLIDATED LOCATION,,,3C,251-500,,,,,,11215.0,40.660024,-73.987637,7.0,38.0,147.0,3331276.0,3008800001.0,Sunset Park West                                                           
46,I.S. 218 Salome Urena |  City College Academy of the Arts |  Middle School 322 |  4600 BROADWAY CONSOLIDATED LOCATION,,,2C,1-250,,,,,,10040.0,40.86079,-73.930672,12.0,10.0,285.0,1076756.0,1021720016.0,Washington Heights North                                                   
47,P.S. 059 Beekman Hill International |  Art and Design High School |  231-249 EAST 56 STREET CONSOLIDATED LOCATION,0.0,2.0,10C,2001-2500,1.69,7.16,17.44,3.63,3.94,10023.0,40.774351,-73.984753,7.0,6.0,151.0,1030343.0,1011570025.0,Lincoln Square                                                             
48,P.S. 329 Surfside,0.0,0.0,3C,251-500,0.27,0.9,1.67,0.63,0.44,11209.0,40.63359,-74.023948,10.0,43.0,68.0,3146550.0,3058910048.0,Bay Ridge                                                                  
49,P.S. 290 Manhattan New School,0.0,0.0,4C,501-750,0.28,1.11,1.74,0.75,0.53,10031.0,40.820953,-73.951145,9.0,7.0,22301.0,1084132.0,1019880166.0,Manhattanville                                                             
50,P.S. 087 William Sherman,1.0,0.0,5C,751-1000,0.38,1.71,2.38,0.98,0.82,10026.0,40.802207,-73.954142,10.0,9.0,218.0,1055204.0,1018300019.0,Central Harlem South                                                       
51,"Academy for College Preparation and Career Explora |  Academy of Hospitality and Tourism |  Erasmus Yabc |  High School for Youth and Community Development at |  High School for Service & Learning at Erasmus |  Science, Technology and Research Early College Hig |  911 FLATBUSH AVENUE CONSOLIDATED LOCATION",,,3C,251-500,,,,,,11226.0,40.649787,-73.95855,14.0,40.0,794.0,3336215.0,3051030010.0,Erasmus                                                                    
52,M.S. 256 Academic & Athletic Excellence |  Community Action School - MS 258 |  P.S. 333 Manhattan School for Children |  154 WEST  93 STREET CONSOLIDATED LOCATION,,,2C,1-250,,,,,,10025.0,40.791728,-73.970845,7.0,6.0,177.0,1032522.0,1012230005.0,Upper West Side                                                            
53,P.S. 130 Hernando De Soto,2.0,0.0,5C,751-1000,0.38,1.71,2.38,0.98,0.82,10002.0,40.716553,-73.993092,3.0,1.0,16.0,1082489.0,1003010003.0,Chinatown                                                                  
54,P.S. 307 Daniel Hale Williams| 209 YORK STREET CONSOLIDATED LOCATION,0.0,0.0,3C,251-500,0.27,0.9,1.67,0.63,0.44,11201.0,40.701343,-73.982314,2.0,33.0,21.0,3000158.0,3000560007.0,DUMBO-Vinegar Hill-Downtown Brooklyn-Boerum Hill                           
55,P.S. 377 Alejandrina B. De Gautier|ACHIEVEMENT FIRST NORTH BROOKLYN PREP CHARTER SCHOOL(BN)|200 WOODBINE STREET CONSOLIDATED LOCATION,0.0,0.0,4C,501-750,0.28,1.11,1.74,0.75,0.53,11206.0,40.702427,-73.952985,1.0,33.0,531.0,3061235.0,3022360009.0,Bedford                                                                    
56,P.S. 002 Meyer London,0.0,0.0,4C,501-750,0.28,1.11,1.74,0.75,0.53,10014.0,40.732593,-74.006466,2.0,3.0,73.0,1009872.0,1005850041.0,West Village                                                               
57,P.S. 212 Midtown West |  Professional Performing Arts High School |  328 WEST  48 STREET CONSOLIDATED LOCATION,1.0,0.0,5C,751-1000,0.38,1.71,2.38,0.98,0.82,10003.0,40.729636,-73.983818,3.0,2.0,40.0,1006478.0,1004530034.0,East Village                                                               
58,Eagle Academy for Young Men of Harlem |  KAPPA IV |  Mott Hall High School |  Bread & Roses Integrated Arts High School |  6 EDGECOMBE AVENUE CONSOLIDATED LOCATION,,,2C,1-250,,,,,,10030.0,40.817372,-73.947712,10.0,9.0,22102.0,1059460.0,1019600001.0,Central Harlem North-Polo Grounds                                          
59,P.S. 155 William Paca |  Renaissance School of the Arts |  319 EAST 117 STREET CONSOLIDATED LOCATION,3.0,1.0,3C,251-500,0.27,0.9,1.67,0.63,0.44,10075.0,40.770419,-73.951135,8.0,5.0,132.0,1046411.0,1014890001.0,Lenox Hill-Roosevelt Island                                                
60,P.S. 086 The Irvington,1.0,0.0,3C,251-500,0.27,0.9,1.67,0.63,0.44,11237.0,40.700774,-73.91748,4.0,37.0,431.0,3075109.0,3032890027.0,Bushwick North                                                             
61,"J.H.S. 218 James P. Sinnott|The School for Classics: An Academy of Thinkers, W|Invictus Preparatory Charter School|370 FOUNTAIN AVENUE CONSOLIDATED LOCATION",,,3C,251-500,,,,,,11208.0,40.670724,-73.874208,5.0,42.0,1118.0,3095977.0,3042780001.0,East New York                                                              
62,Secondary School for Law |  Secondary School for Journalism |  Park Slope Collegiate |  Millennium Brooklyn HS | 237 7 AVENUE CONSOLIDATED LOCATION,6.0,9.0,9C,1751-2000,0.9,3.5,7.25,2.55,1.45,11226.0,40.649787,-73.95855,14.0,40.0,794.0,3336215.0,3051030010.0,Erasmus                                                                    
63,P.S. 184m Shuang Wen,0.0,2.0,4C,501-750,0.28,1.11,1.74,0.75,0.53,10002.0,40.71925,-73.983056,3.0,1.0,2201.0,1004091.0,1003440001.0,Lower East Side                                                            
64,P.S. 139 Alexine A. Fenty,0.0,0.0,5C,751-1000,0.38,1.71,2.38,0.98,0.82,11231.0,40.68007,-74.001377,6.0,39.0,63.0,3336036.0,3003690001.0,Carroll Gardens-Columbia Street-Red Hook                                   
65,NYC iSchool |  Chelsea Career and Technical Education High School |  131 AVENUE OF THE AMERICAS CONSOLIDATED LOCATION,,,3C,251-500,,,,,,10016.0,40.746176,-73.981241,5.0,2.0,72.0,1087537.0,1008897501.0,Murray Hill-Kips Bay                                                       
66,"James Baldwin School, The: A School for Expedition |  MANHATTAN BUSINESS ACADEMY |  Landmark High School |  Quest to Learn |  Hudson High School of Learning Technologies |  Humanities Preparatory Academy |  351 WEST  18 STREET CONSOLIDATED LOCATION",,,3C,251-500,,,,,,10011.0,40.742867,-74.002136,4.0,3.0,89.0,1013096.0,1007420007.0,Hudson Yards-Chelsea-Flatiron-Union Square                                 
67,P.S. 059 William Floyd |  Success Academy Charter School - Bed-Stuy 2 |  211 THROOP AVENUE CONSOLIDATED LOCATION,,,3C,251-500,,,,,,11206.0,40.696733,-73.943652,3.0,36.0,28502.0,3048546.0,3017490001.0,Stuyvesant Heights                                                         
68,P.S. K077 |  M.S. K266 - Park Place Community Middle School |  M.S. K266 - Park Place Community Middle School,,,2C,1-250,,,,,,11217.0,40.678983,-73.976497,6.0,39.0,12902.0,3259250.0,3009410050.0,Park Slope-Gowanus                                                         
69,James Weldon Johnson,0.0,1.0,5C,751-1000,0.38,1.71,2.38,0.98,0.82,10019.0,40.763866,-73.985939,4.0,3.0,133.0,1025241.0,1010430022.0,Clinton                                                                    
70,P.S. 197 - The Kings Highway Academy |  I. S. 381 |  1599 EAST  22 STREET CONSOLIDATED LOCATION,,,3C,251-500,,,,,,11210.0,40.63694,-73.937339,17.0,45.0,836.0,3113388.0,3049880066.0,East Flatbush-Farragut                                                     
71,The Urban Assembly School for Global Commerce|  Harlem Children's Zone Promise Academy II Charter|   2005 MADISON AVENUE CONSOLIDATED LOCATION,,,5C,751-1000,,,,,,10002.0,40.72252,-73.990728,3.0,1.0,3601.0,1005626.0,1004220072.0,Chinatown                                                                  
72,P.S. 123 Suydam,0.0,0.0,4C,501-750,0.28,1.11,1.74,0.75,0.53,11215.0,40.667545,-73.991046,6.0,39.0,141.0,3023391.0,3010340001.0,Park Slope-Gowanus                                                         
73,Manhattan Center for Science and Mathematics |  Isaac Newton Middle School for Math & Science |  260 PLEASANT AVENUE CONSOLIDATED LOCATION,5.0,2.0,9C,1751-2000,0.9,3.5,7.25,2.55,1.45,10011.0,40.742867,-74.002136,4.0,3.0,89.0,1013096.0,1007420007.0,Hudson Yards-Chelsea-Flatiron-Union Square                                 
74,P.S. K134,0.0,0.0,4C,501-750,0.28,1.11,1.74,0.75,0.53,11234.0,40.628659,-73.92793,18.0,45.0,728.0,3215550.0,3077750001.0,Flatlands                                                                  
75,"P.S. 019 Asher Levy |  Technology, Arts, and Sciences Studio |  185 1 AVENUE CONSOLIDATED LOCATION",0.0,2.0,3C,251-500,0.27,0.9,1.67,0.63,0.44,10002.0,40.72154,-73.986648,3.0,1.0,3001.0,1004325.0,1003550001.0,Chinatown                                                                  
76,P.S. 308 Clara Cardwell|  Teaching Firms of America-Professional Preparatory|  616 QUINCY STREET CONSOLIDATED LOCATION,,,3C,251-500,,,,,,11221.0,40.688695,-73.935499,3.0,36.0,293.0,3044493.0,3016300001.0,Stuyvesant Heights                                                         
77,J.H.S. 223 The Montauk |  Urban Assembly School for Criminal Justice |  4200 16 AVENUE CONSOLIDATED LOCATION,,,4C,501-750,,,,,,11208.0,40.664075,-73.866092,5.0,42.0,1220.0,3098980.0,3045300001.0,East New York                                                              
78,P.S. 048 P.O. Michael J. Buczek,1.0,0.0,4C,501-750,0.28,1.11,1.74,0.75,0.53,10029.0,40.785258,-73.941526,11.0,8.0,162.0,1083933.0,1016940001.0,East Harlem South                                                          
79,P.S. 262 El Hajj Malik El Shabazz Elementary Schoo,1.0,2.0,3C,251-500,0.27,0.9,1.67,0.63,0.44,11212.0,40.666545,-73.910904,16.0,41.0,924.0,3081442.0,3035420001.0,Brownsville                                                                
80,East Flatbush Community Research School |  Arts & Media Preparatory Academy |  Middle School of Marketing and Legal Studies |  905 WINTHROP STREET CONSOLIDATED LOCATION,,,2C,1-250,,,,,,11203.0,40.65843,-73.929076,17.0,41.0,880.0,3099733.0,3046060025.0,Prospect Lefferts Gardens-Wingate                                          
81,J.H.S. 052 Inwood |  High School for Excellence and Innovation | INWOOD EARLY COLLEGE FOR HEALTH AND INFORMATION TE|   650 ACADEMY STREET CONSOLIDATED LOCATION,,,3C,251-500,,,,,,10034.0,40.866053,-73.924835,12.0,10.0,291.0,1076776.0,1022330020.0,Marble Hill-Inwood                                                         
82,"Brooklyn Latin School, The |  Green School: An Academy for Environmental Careers |  Lyons Community School 223 GRAHAM AVENUE CONSOLIDATED LOCATION",,,2C,1-250,,,,,,11206.0,40.709941,-73.943641,1.0,34.0,505.0,3070825.0,3030250001.0,East Williamsburg                                                          
83,The Urban Assembly School for Law and Justice |  Urban Assembly Institute of Math and Science for Y |  283 ADAMS STREET CONSOLIDATED LOCATION,2.0,4.0,6C,1001-1250,0.57,2.12,3.64,1.39,1.05,,,,,,,,,
84,P.S. 295 |  New Voices School of Academic & Creative Arts |  330 18 STREET CONSOLIDATED LOCATION,,,3C,251-500,,,,,,,,,,,,,,
85,J.H.S. 383 Philippa Schuyler| Achievement First Bushwick Charter School| 1300 GREENE AVENUE CONSOLIDATED LOCATION,4.0,2.0,9C,1751-2000,0.9,3.5,7.25,2.55,1.45,11207.0,40.690353,-73.904803,4.0,37.0,409.0,3080043.0,3034420001.0,Bushwick North                                                             
86, Brooklyn Gardens Elementary School |  School of the Future Brooklyn |  574 DUMONT AVENUE CONSOLIDATED LOCATION,,,2C,1-250,,,,,,11212.0,40.665878,-73.911705,16.0,41.0,924.0,3081419.0,3035410001.0,Brownsville                                                                
87,P.S. 89 |  I.S. 289 |  201 WARREN STREET CONSOLIDATED LOCATION,,,3C,251-500,,,,,,10282.0,40.716668,-74.013542,1.0,1.0,31703.0,1085568.0,1000160220.0,Battery Park City-Lower Manhattan                                          
88,P.S. K004,0.0,0.0,3C,251-500,0.27,0.9,1.67,0.63,0.44,,,,,,,,,
89,Secondary School for Law |  Secondary School for Journalism |  Park Slope Collegiate |  Millennium Brooklyn HS | 237 7 AVENUE CONSOLIDATED LOCATION,,,4C,501-750,,,,,,11215.0,40.669629,-73.979287,6.0,39.0,155.0,3025510.0,3010820001.0,Park Slope-Gowanus                                                         
90,"Brooklyn Community High School of Communication, A |  Brooklyn Prospect Charter School Downtown |  Brooklyn High School for Leadership and Community |  300 WILLOUGHBY AVENUE CONSOLIDATED LOCATION",,,2C,1-250,,,,,,11205.0,40.692642,-73.958794,3.0,33.0,235.0,3055165.0,3019260010.0,Clinton Hill                                                               
91,NYC iSchool |  Chelsea Career and Technical Education High School |  131 AVENUE OF THE AMERICAS CONSOLIDATED LOCATION,,,3C,251-500,,,,,,10016.0,40.746176,-73.981241,5.0,2.0,72.0,1087537.0,1008897501.0,Murray Hill-Kips Bay                                                       
92,Dr. Jacqueline Peek-Davis School |  Ronald Edmonds Learning Center II |  430 HOWARD AVENUE CONSOLIDATED LOCATION,,,2C,1-250,,,,,,11233.0,40.673073,-73.919594,16.0,41.0,363.0,3039174.0,3014570032.0,Ocean Hill                                                                 
93,P.S. 133 Fred R Moore,0.0,0.0,2C,1-250,0.24,0.71,1.71,0.51,0.32,10002.0,40.71457,-73.983724,3.0,1.0,202.0,1003736.0,1002880015.0,Lower East Side                                                            
94,P.S. 009 Teunis G. Bergen|Brooklyn East Collegiate Charter School|80 UNDERHILL AVENUE CONSOLIDATED LOCATION,,,3C,251-500,,,,,,11238.0,40.678297,-73.965541,8.0,35.0,205.0,3028204.0,3011450026.0,Prospect Heights                                                           
95,P.S. 026 Jesse Owens |  Frederick Douglass Academy IV Secondary School |  Madiba Prep Middle School |1014 LAFAYETTE AVENUE CONSOLIDATED LOCATION,,,2C,1-250,,,,,,11221.0,40.692126,-73.931731,3.0,36.0,291.0,3393805.0,3016160001.0,Stuyvesant Heights                                                         
96,University Neighborhood High School,2.0,0.0,3C,251-500,0.27,0.9,1.67,0.63,0.44,10003.0,40.735494,-73.987659,6.0,2.0,50.0,1017828.0,1008720057.0,Gramercy                                                                   
97,Brooklyn Generation School |  Brooklyn Theatre Arts High School |  Victory Collegiate High School |  Brooklyn Bridge Academy |  Academy for Conservation and the Environment |  South Shore Educational Complex Yabc |  6565 FLATLANDS AVENUE CONSOLIDATED LOCATION,,,2C,1-250,,,,,,11236.0,40.633285,-73.916735,18.0,46.0,950.0,3224139.0,3079980005.0,Canarsie                                                                   
98,P.S. 102 Jacques Cartier,0.0,1.0,3C,251-500,0.27,0.9,1.67,0.63,0.44,10010.0,40.736094,-73.980663,6.0,2.0,64.0,1081671.0,1009260001.0,Gramercy                                                                   
99,"J.H.S. 218 James P. Sinnott|The School for Classics: An Academy of Thinkers, W|Invictus Preparatory Charter School|370 FOUNTAIN AVENUE CONSOLIDATED LOCATION",,,3C,251-500,,,,,,11208.0,40.670724,-73.874208,5.0,42.0,1118.0,3095977.0,3042780001.0,East New York                                                              
100,P.S. 009 Sarah Anderson |  M.S. 243 Center School |  100 WEST  84 STREET CONSOLIDATED LOCATION,,,2C,1-250,,,,,,10024.0,40.785287,-73.97343,7.0,6.0,169.0,1032119.0,1012140029.0,Upper West Side                                                            
101,Amistad Dual Language School |  Muscota |  4862 BROADWAY CONSOLIDATED LOCATION,0.0,0.0,4C,501-750,0.28,1.11,1.74,0.75,0.53,10065.0,40.763736,-73.95815,8.0,5.0,116.0,1045569.0,1014610007.0,Lenox Hill-Roosevelt Island                                                
102,J.H.S. 292 Margaret S. Douglas | The Uft Charter School | 301 VERMONT STREET|300 WYONA STREET|CONSOLIDATED LOCATION,,,3C,251-500,,,,,,11207.0,40.671987,-73.893896,5.0,42.0,1144.0,3083931.0,3037400001.0,East New York (Pennsylvania Ave)                                           
103,P.S. 192 Jacob H. Schiff| Hamilton Grange Middle School| P.S. 325| 500 WEST 138 STREET CONSOLIDATED LOCATION,,,3C,251-500,,,,,,10030.0,40.821535,-73.940941,10.0,9.0,232.0,1060432.0,1020290011.0,Central Harlem North-Polo Grounds                                          
104,P.S. M169 - Robert F. Kennedy,2.0,2.0,3C,251-500,0.27,0.9,1.67,0.63,0.44,10029.0,40.792122,-73.951961,11.0,8.0,168.0,1051497.0,1016090007.0,East Harlem South                                                          
105,P.S. 128 Audubon |  Castle Bridge School |  560 WEST 169 STREET CONSOLIDATED LOCATION,,,4C,501-750,,,,,,10032.0,40.841321,-73.938506,12.0,10.0,251.0,1062994.0,1021250001.0,Washington Heights South                                                   
106,The SEEALL Academy |  P.S. K231 |  5601 16 AVENUE CONSOLIDATED LOCATION,,,6C,1001-1250,,,,,,11204.0,40.627029,-73.989672,12.0,44.0,470.0,3130809.0,3054920001.0,Borough Park                                                               
107,Jacqueline Kennedy Onassis High School,5.0,2.0,4C,501-750,0.28,1.11,1.74,0.75,0.53,10022.0,40.75924,-73.967203,6.0,4.0,108.0,1088892.0,1013300013.0,Turtle Bay-East Midtown                                                    
108,P.S. 116 Elizabeth L Farrell,1.0,1.0,3C,251-500,0.27,0.9,1.67,0.63,0.44,11237.0,40.697779,-73.916521,4.0,37.0,433.0,3075909.0,3033170001.0,Bushwick North                                                             
109,Thomas Jefferson Yabc |  FDNY High School for Fire and Life Safety |  High School for Civil Rights |  Performing Arts and Technology High School |  World Academy for Total Community Health High Scho |  400 PENNSYLVANIA AVENUE CONSOLIDATED LOCATION,,,3C,251-500,,,,,,11207.0,40.667456,-73.894747,5.0,42.0,1156.0,3084440.0,3037880001.0,East New York (Pennsylvania Ave)                                           
110,P.S. 040 Augustus Saint-Gaudens |  M.S. 255 Salk School of Science |  319 EAST 19 STREET CONSOLIDATED LOCATION,,,3C,251-500,,,,,,10003.0,40.735161,-73.982027,6.0,2.0,64.0,1020513.0,1009250012.0,Gramercy                                                                   
111,P.S. 169 Sunset Park,1.0,0.0,8C,1501-1750,0.66,3.26,7.31,1.77,1.74,11209.0,40.630843,-74.01913,10.0,43.0,134.0,3146921.0,3058990001.0,Bay Ridge                                                                  
112,P.S. 110 Florence Nightingale,1.0,0.0,3C,251-500,0.27,0.9,1.67,0.63,0.44,10019.0,40.765878,-73.988823,4.0,3.0,133.0,1026740.0,1010620003.0,Clinton                                                                    
113,Leon M. Goldstein High School for the Sciences,0.0,0.0,6C,1001-1250,0.57,2.12,3.64,1.39,1.05,11223.0,40.589268,-73.981738,13.0,47.0,308.0,3194998.0,3071850020.0,Gravesend                                                                  
114,M.S. 224 Manhattan East School for Arts & Academic |Success Academy Charter School - Harlem 3 |Renaissance Charter High School for Innovation |410 EAST 100 STREET CONSOLIDATED LOCATION,0.0,1.0,7C,1251-1500,0.64,3.02,5.77,1.72,1.54,10029.0,40.79564,-73.94441,11.0,8.0,172.0,1081346.0,1016390003.0,East Harlem South                                                          
115,Central Park East I|  Central Park East High School|  East Harlem Scholars Academy Charter School II|  East Harlem Scholars Academy Charter School|  1573 MADISON AVENUE CONSOLIDATED LOCATION,,,2C,1-250,,,,,,10029.0,40.793763,-73.949381,11.0,8.0,17401.0,1051515.0,1016120050.0,East Harlem South                                                          
116,P.S. 146 |  Brooklyn Secondary School for Collaborative Studie |  610 HENRY STREET CONSOLIDATED LOCATION,,,4C,501-750,,,,,,11206.0,40.701692,-73.932338,4.0,34.0,425.0,3071915.0,3031530011.0,Bushwick South                                                             
117,P.S. 015 Patrick F. Daly,0.0,0.0,3C,251-500,0.27,0.9,1.67,0.63,0.44,11231.0,40.677343,-74.011558,6.0,38.0,53.0,3008585.0,3005660001.0,Carroll Gardens-Columbia Street-Red Hook                                   
118,P.S. 181 Brooklyn,1.0,0.0,5C,751-1000,0.38,1.71,2.38,0.98,0.82,11212.0,40.660204,-73.913933,16.0,42.0,896.0,3082253.0,3035970011.0,Brownsville                                                                
119,"James Baldwin School, The: A School for Expedition |  MANHATTAN BUSINESS ACADEMY |  Landmark High School |  Quest to Learn |  Hudson High School of Learning Technologies |  Humanities Preparatory Academy |  351 WEST  18 STREET CONSOLIDATED LOCATION",,,3C,251-500,,,,,,10011.0,40.742867,-74.002136,4.0,3.0,89.0,1013096.0,1007420007.0,Hudson Yards-Chelsea-Flatiron-Union Square                                 
120,"Food and Finance High School |  High School of Hospitality Management |  Urban Assembly School of Design and Construction, |  Facing History School, The |  Manhattan Bridges High School |  525 WEST  50TH STREET CONSOLIDATED LOCATION",,,3C,251-500,,,,,,10031.0,40.818188,-73.950356,9.0,9.0,21703.0,1059409.0,1019570078.0,Manhattanville                                                             
121,P.S. 335 Granville T. Woods |  M.S. 584 |  130 ROCHESTER AVENUE CONSOLIDATED LOCATION,,,3C,251-500,,,,,,11213.0,40.674656,-73.927794,8.0,36.0,307.0,3035887.0,3013550023.0,Crown Heights North                                                        
122,M.S. 131 |  Pace High School |  EMMA LAZARUS HIGH SCHOOL |  100 HESTER STREET CONSOLIDATED LOCATION,,,3C,251-500,,,,,,10033.0,40.850626,-73.934377,12.0,10.0,271.0,1063947.0,1021650026.0,Washington Heights North                                                   
123,P.S. 188 The Island School l Girls Prep Charter School | 442 East Houston Street,1.0,0.0,3C,251-500,0.27,0.9,1.67,0.63,0.44,10023.0,40.771925,-73.987328,7.0,6.0,147.0,1030320.0,1011520029.0,Lincoln Square                                                             
124,Vista Academy |  Liberty Avenue Middle School | ACHIEVEMENT FIRST APOLLO CHARTER SCHOOL| 350 LINWOOD STREET CONSOLIDATED LOCATION,,,3C,251-500,,,,,,11208.0,40.677104,-73.883433,5.0,37.0,1170.0,3088357.0,3039690001.0,East New York                                                              
125,Bushwick Leaders High School for Academic Excellence ,1.0,0.0,3C,251-500,0.27,0.9,1.67,0.63,0.44,11239.0,40.646599,-73.878441,5.0,42.0,105801.0,3098300.0,3044520325.0,Starrett City                                                              
126,George Washington Yabc |  The College Academy |  High School for Media and Communications |  High School for Law and Public Service |  High School for Health Careers and Sciences |  549 AUDUBON AVENUE CONSOLIDATED LOCATION,,,3C,251-500,,,,,,10024.0,40.785803,-73.974614,7.0,6.0,169.0,1032128.0,1012150001.0,Upper West Side                                                            
127,I.S. 068 Isaac Bildersee,1.0,1.0,3C,251-500,0.27,0.9,1.67,0.63,0.44,11236.0,40.635553,-73.91079,18.0,46.0,956.0,3224947.0,3080180001.0,Canarsie                                                                   
128,IS 096 Seth Low|  Success Academy Charter School| 99 AVENUE P CONSOLIDTED LOCATION,,,4C,501-750,,,,,,11204.0,40.60754,-73.984661,11.0,44.0,430.0,3174076.0,3065950033.0,Bensonhurst East                                                           
129,P.S. 243K- The Weeksville School,2.0,2.0,3C,251-500,0.27,0.9,1.67,0.63,0.44,11203.0,40.648423,-73.925948,17.0,45.0,946.0,3104513.0,3047390001.0,Rugby-Remsen Village                                                       
130,Gramercy Arts High School|THE HIGH SCHOOL FOR LANGUAGE AND DIPLOMACY|International High School at Union Square|Washington Irving Yabc|Union Square Academy for Health Sciences|Academy for Software Engineering|Success Academy Union Square (Manhattan 1)|40 IRVING PLACE CONSOLIDATED LOCATION,,,3C,251-500,,,,,,10040.0,40.855954,-73.927051,12.0,10.0,277.0,1076751.0,1021600018.0,Washington Heights North                                                   
131,The Urban Assembly School for Law and Justice |  Urban Assembly Institute of Math and Science for Y |  283 ADAMS STREET CONSOLIDATED LOCATION,,,3C,251-500,,,,,,11201.0,40.694682,-73.988853,2.0,33.0,11.0,3331741.0,3001400010.0,DUMBO-Vinegar Hill-Downtown Brooklyn-Boerum Hill                           
132,P.S. 121 Nelson A. Rockefeller,0.0,0.0,3C,251-500,0.27,0.9,1.67,0.63,0.44,11237.0,40.703767,-73.922702,4.0,34.0,445.0,3072966.0,3032100001.0,Bushwick North                                                             
133,The School of Integrated Learning|KIPP AMP Charter School|1224 PARK PLACE CONSOLIDATED LOCATION,,,2C,1-250,,,,,,11213.0,40.672713,-73.936924,8.0,36.0,343.0,3036405.0,3013700029.0,Crown Heights North                                                        
134,International High School at Prospect Heights |  The High School for Global Citizenship |  Brooklyn Academy of Science and the Environment |  Brooklyn School for Music & Theatre |  883 CLASSON AVENUE CONSOLIDATED LOCATION,,,3C,251-500,,,,,,11225.0,40.670349,-73.961695,9.0,35.0,213.0,3029686.0,3011870001.0,Crown Heights South                                                        
135,It Takes a Village Academy |  Kurt Hahn Expeditionary Learning School |  Cultural Academy for the Arts and Sciences | New American Academy Charter School |  5800 TILDEN AVENUE CONSOLIDATED LOCATION,,,3C,251-500,,,,,,11203.0,40.648657,-73.922171,17.0,45.0,936.0,3104598.0,3047420001.0,Rugby-Remsen Village                                                       
136,Gramercy Arts High School|THE HIGH SCHOOL FOR LANGUAGE AND DIPLOMACY|International High School at Union Square|Washington Irving Yabc|Union Square Academy for Health Sciences|Academy for Software Engineering|Success Academy Union Square (Manhattan 1)|40 IRVING PLACE CONSOLIDATED LOCATION,,,3C,251-500,,,,,,10003.0,40.735494,-73.987659,6.0,2.0,50.0,1017828.0,1008720057.0,Gramercy                                                                   
137,P.S. 245,1.0,0.0,3C,251-500,0.27,0.9,1.67,0.63,0.44,,,,,,,,,
138,The Math & Science Exploratory School |  Brooklyn High School of the Arts |  345 DEAN STREET CONSOLIDATED LOCATION,,,4C,501-750,,,,,,11217.0,40.683559,-73.98027,2.0,33.0,39.0,3001190.0,3001920013.0,DUMBO-Vinegar Hill-Downtown Brooklyn-Boerum Hill                           
139,Vista Academy |  Liberty Avenue Middle School | ACHIEVEMENT FIRST APOLLO CHARTER SCHOOL| 350 LINWOOD STREET CONSOLIDATED LOCATION,,,5C,751-1000,,,,,,11224.0,40.5825,-73.973122,13.0,47.0,354.0,3196292.0,3072500025.0,West Brighton                                                              
140,P.S. 193 Gil Hodges,1.0,0.0,5C,751-1000,0.38,1.71,2.38,0.98,0.82,11229.0,40.596757,-73.933499,15.0,46.0,570.0,3201629.0,3073930001.0,Sheepshead Bay-Gerritsen Beach-Manhattan Beach                             
141,P.S./I.S. 104 The Fort Hamilton School,0.0,0.0,7C,1251-1500,0.64,3.02,5.77,1.72,1.54,11209.0,40.618415,-74.028842,10.0,43.0,160.0,3154775.0,3060880001.0,Bay Ridge                                                                  
142,"Urban Assembly High School of Music and Art |  Science Skills Center High School for Science, Tec |  Brooklyn International High School |  49 FLATBUSH AVENUE EXTENSION CONSOLIDATED LOCATION",,,3C,251-500,,,,,,11201.0,40.697339,-73.985016,2.0,33.0,15.0,3000216.0,3001200020.0,DUMBO-Vinegar Hill-Downtown Brooklyn-Boerum Hill                           
143,P.S. 023 Carter G. Woodson |Brooklyn Charter School |545 WILLOUGHBY AVENUE CONSOLIDATED LOCATION,,,3C,251-500,,,,,,11206.0,40.69407,-73.94756,3.0,36.0,25901.0,3048818.0,3017590013.0,Bedford                                                                    
144,P.S. 054 Samuel C. Barnes,0.0,0.0,2C,1-250,0.24,0.71,1.71,0.51,0.32,11205.0,40.693018,-73.953034,3.0,33.0,241.0,3049020.0,3017650015.0,Bedford                                                                    
145,River East Elementary |  P.S. 206 Jose Celso Barbosa |  508 EAST 120 STREET CONSOLIDATED LOCATION,,,2C,1-250,,,,,,10026.0,40.802136,-73.947828,10.0,9.0,190.0,1051434.0,1016010001.0,Central Harlem South                                                       
146,Central Park East I|  Central Park East High School|  East Harlem Scholars Academy Charter School II|  East Harlem Scholars Academy Charter School|  1573 MADISON AVENUE CONSOLIDATED LOCATION,,,3C,251-500,,,,,,10029.0,40.793763,-73.949381,11.0,8.0,17401.0,1051515.0,1016120050.0,East Harlem South                                                          
147,P.S. 194 Raoul Wallenberg,0.0,0.0,4C,501-750,0.28,1.11,1.74,0.75,0.53,11235.0,40.579451,-73.943819,15.0,48.0,620.0,3246519.0,3087520035.0,Sheepshead Bay-Gerritsen Beach-Manhattan Beach                             
148,P.S. 284 Lew Wallace,0.0,1.0,3C,251-500,0.27,0.9,1.67,0.63,0.44,11203.0,40.646877,-73.920977,17.0,45.0,936.0,3104599.0,3047440001.0,Rugby-Remsen Village                                                       
149,Sunset Park High School,0.0,1.0,7C,1251-1500,0.64,3.02,5.77,1.72,1.54,11201.0,40.694926,-73.986015,2.0,33.0,13.0,3348041.0,3001310001.0,DUMBO-Vinegar Hill-Downtown Brooklyn-Boerum Hill                           
150,P.S./I.S. 045 Horace E. Greene,0.0,1.0,4C,501-750,0.28,1.11,1.74,0.75,0.53,11207.0,40.686746,-73.910693,4.0,37.0,401.0,3079428.0,3034270011.0,Bushwick South                                                             
151,P.S. 298 Dr. Betty Shabazz |  Brownsville Collaborative Middle School |  85 WATKINS STREET CONSOLIDATED LOCATION,,,2C,1-250,,,,,,11212.0,40.670986,-73.908194,16.0,37.0,906.0,3080768.0,3035070007.0,Brownsville                                                                
152,P.S. 033 Chelsea Prep,0.0,1.0,4C,501-750,0.28,1.11,1.74,0.75,0.53,10009.0,40.726473,-73.975181,3.0,2.0,28.0,1004564.0,1003810038.0,Lower East Side                                                            
153,P.S. 298 Dr. Betty Shabazz |  Brownsville Collaborative Middle School |  85 WATKINS STREET CONSOLIDATED LOCATION,,,2C,1-250,,,,,,11212.0,40.670986,-73.908194,16.0,37.0,906.0,3080768.0,3035070007.0,Brownsville                                                                
154,P.S. 058 The Carroll,0.0,0.0,5C,751-1000,0.38,1.71,2.38,0.98,0.82,11231.0,40.680149,-73.994938,6.0,39.0,77.0,3007547.0,3004490015.0,Carroll Gardens-Columbia Street-Red Hook                                   
155,47 The American Sign Language and English Secondar |  The 47 American Sign Language & English Lower Scho |  223 EAST 23 STREET CONSOLIDATED LOCATION,2.0,0.0,3C,251-500,0.27,0.9,1.67,0.63,0.44,10033.0,40.853466,-73.934048,12.0,10.0,271.0,1076752.0,1021670029.0,Washington Heights North                                                   
156,Sixth Avenue Elementary School,0.0,1.0,2C,1-250,0.24,0.71,1.71,0.51,0.32,10029.0,40.793856,-73.934028,11.0,8.0,178.0,1053152.0,1017130001.0,East Harlem North                                                          
157,P.S. 192 Jacob H. Schiff| Hamilton Grange Middle School| P.S. 325| 500 WEST 138 STREET CONSOLIDATED LOCATION,,,2C,1-250,,,,,,10030.0,40.821535,-73.940941,10.0,9.0,232.0,1060432.0,1020290011.0,Central Harlem North-Polo Grounds                                          
158,Ella Baker School |  Vanguard High School |  Manhattan International High School |  Talent Unlimited High School |  Urban Academy Laboratory High School |  317 EAST  67 STREET CONSOLIDATED LOCATION,,,3C,251-500,,,,,,10065.0,40.765359,-73.960059,8.0,5.0,118.0,1083343.0,1014420001.0,Lenox Hill-Roosevelt Island                                                
159,School of Science & Technology |  P.S. K315 |  2310 GLENWOOD ROAD CONSOLIDATED LOCATION,,,4C,501-750,,,,,,11229.0,40.601617,-73.959779,15.0,48.0,556.0,3196677.0,3072910030.0,Homecrest                                                                  
160,John Ericsson Middle School 126| Citizens of the World Charter School 1 Williamsbur| Northside Charter High School| 424 LEONARD STREET CONSOLIDATED LOCATION,,,3C,251-500,,,,,,11222.0,40.719819,-73.948625,1.0,33.0,499.0,3067788.0,3027120001.0,Greenpoint                                                                 
161,J.H.S. 223 The Montauk |  Urban Assembly School for Criminal Justice |  4200 16 AVENUE CONSOLIDATED LOCATION,,,6C,1001-1250,,,,,,11204.0,40.634875,-73.981528,12.0,44.0,230.0,3125676.0,3053620021.0,Borough Park                                                               
162,P.S. 204 Vince Lombardi,0.0,0.0,6C,1001-1250,0.57,2.12,3.64,1.39,1.05,11204.0,40.61527,-73.987149,11.0,47.0,256.0,3134749.0,3055710001.0,Bensonhurst West                                                           
163,M.S. 51 William Alexander,5.0,0.0,6C,1001-1250,0.57,2.12,3.64,1.39,1.05,11215.0,40.672015,-73.983947,6.0,39.0,135.0,3021057.0,3009810111.0,Park Slope-Gowanus                                                         
164,P.S. 270 Johann DeKalb | Community Partnership Charter School | 241 EMERSON PLACE CONSOLIDATED LOCATION,,,3C,251-500,,,,,,11233.0,40.677805,-73.915843,16.0,41.0,301.0,3042157.0,3015500001.0,Ocean Hill                                                                 
165,Multicultural High School |Academy of Innovative Technology |Brooklyn Lab School |Cypress Hills Collegiate Preparatory School |The Urban Assembly School for Collaborative Health |999 JAMAICA AVENUE CONSOLIDATED LOCATION,3.0,8.0,7C,1251-1500,0.64,3.02,5.77,1.72,1.54,11208.0,40.657459,-73.874756,5.0,42.0,1070.0,3413878.0,3044490001.0,East New York                                                              
166,M.S. 131 |  Pace High School |  EMMA LAZARUS HIGH SCHOOL |  100 HESTER STREET CONSOLIDATED LOCATION,,,3C,251-500,,,,,,10002.0,40.716553,-73.993092,3.0,1.0,16.0,1082489.0,1003010003.0,Chinatown                                                                  
167,P.S. 376,0.0,0.0,4C,501-750,0.28,1.11,1.74,0.75,0.53,11221.0,40.694018,-73.915263,4.0,37.0,415.0,3076784.0,3033600001.0,Bushwick South                                                             
168,Brooklyn Technical High School,4.0,3.0,13C,4000+,0.33,6.67,7.0,3.33,2.0,11207.0,40.667456,-73.894747,5.0,42.0,1156.0,3084440.0,3037880001.0,East New York (Pennsylvania Ave)                                           
169,"Essex Street Academy |  Urban Assembly Academy of Government and Law, The |  Lower Manhattan Arts Academy |  New Design High School |  High School for Dual Language and Asian Studies |  350 GRAND STREET CONSOLIDATED LOCATION",,,3C,251-500,,,,,,10011.0,40.741657,-73.999307,4.0,3.0,81.0,1013858.0,1007670068.0,Hudson Yards-Chelsea-Flatiron-Union Square                                 
170,P.S. 77 Lower Lab School |  P.S. 198 Isador E. Ida Straus |  1700 3 AVENUE CONSOLIDATED LOCATION,,,3C,251-500,,,,,,10039.0,40.824495,-73.936997,10.0,9.0,236.0,1060198.0,1020160100.0,Central Harlem North-Polo Grounds                                          
171,P.S. 256 Benjamin Banneker,1.0,0.0,3C,251-500,0.27,0.9,1.67,0.63,0.44,,,,,,,,,
172,P.S. 316 Elijah Stroud |  Elijah Stroud Middle School |  750 CLASSON AVENUE CONSOLIDATED LOCATION,,,2C,1-250,,,,,,11238.0,40.674406,-73.960254,8.0,35.0,215.0,3029246.0,3011670018.0,Prospect Heights                                                           
173,J.H.S. 078 Roy H. Mann |SUCCESS ACADEMY CHARTER SCHOOL - BERGEN BEACH(BS)  | CONSOLIDATED LOCATION,0.0,0.0,5C,751-1000,0.38,1.71,2.38,0.98,0.82,11234.0,40.621224,-73.91287,18.0,46.0,69602.0,3236496.0,3083880002.0,Georgetown-Marine Park-Bergen Beach-Mill Basin                             
174,P.S. 146 |  Brooklyn Secondary School for Collaborative Studie |  610 HENRY STREET CONSOLIDATED LOCATION,,,4C,501-750,,,,,,11231.0,40.68007,-74.001377,6.0,39.0,63.0,3336036.0,3003690001.0,Carroll Gardens-Columbia Street-Red Hook                                   
175,J.H.S. 223 The Montauk |  Urban Assembly School for Criminal Justice |  4200 16 AVENUE CONSOLIDATED LOCATION,0.0,0.0,8C,1501-1750,0.66,3.26,7.31,1.77,1.74,11204.0,40.634875,-73.981528,12.0,44.0,230.0,3125676.0,3053620021.0,Borough Park                                                               
176,Van Siclen Community Middle School | Achivement First Brooklyn Academy Charter School |UFT Charter School |800 VAN SICLEN AVE CONSOLIDATED LOCATION,,,3C,251-500,,,,,,11213.0,40.669001,-73.934635,8.0,35.0,353.0,3037303.0,3013890035.0,Crown Heights North                                                        
177,Manhattan Center for Science and Mathematics |  Isaac Newton Middle School for Math & Science |  260 PLEASANT AVENUE CONSOLIDATED LOCATION,,,8C,1501-1750,,,,,,10011.0,40.742867,-74.002136,4.0,3.0,89.0,1013096.0,1007420007.0,Hudson Yards-Chelsea-Flatiron-Union Square                                 
178,Mott Hall IV |  Eagle Academy for Young Men II |Ocean Hill Collegiate Charter School |1137 HERKIMER STREET CONSOLIDATED LOCATION,,,2C,1-250,,,,,,11233.0,40.677805,-73.915843,16.0,41.0,301.0,3042157.0,3015500001.0,Ocean Hill                                                                 
179,P.S. 007 Samuel Stern |  Global Technology Preparatory |  160 EAST 120 STREET CONSOLIDATED LOCATION,3.0,0.0,4C,501-750,0.28,1.11,1.74,0.75,0.53,10032.0,40.838954,-73.936838,12.0,10.0,249.0,1081842.0,1021120001.0,Washington Heights South                                                   
180,"East Side Elementary School, PS 267",0.0,0.0,3C,251-500,0.27,0.9,1.67,0.63,0.44,10280.0,40.70644,-74.017818,1.0,1.0,31704.0,1087945.0,1000160040.0,Battery Park City-Lower Manhattan                                          
181,International High School at Lafayette |  High School of Sports Management |  Kingsborough Early College School |  Life Academy High School for Film and Music |  Expeditionary Learning School for Community Leader |  2630 BENSON AVENUE CONSOLIDATED LOCATION,4.0,1.0,9C,1751-2000,0.9,3.5,7.25,2.55,1.45,11210.0,40.633237,-73.952929,14.0,45.0,772.0,3205788.0,3075530041.0,Flatbush                                                                   
182,"Brooklyn Latin School, The |  Green School: An Academy for Environmental Careers |  Lyons Community School 223 GRAHAM AVENUE CONSOLIDATED LOCATION",,,4C,501-750,,,,,,11206.0,40.709941,-73.943641,1.0,34.0,505.0,3070825.0,3030250001.0,East Williamsburg                                                          
183,High School for Innovation in Advertising and Medi |  High School for Medical Professions |  Urban Action Academy |  1600 ROCKAWAY PARKWAY CONSOLIDATED LOCATION,,,3C,251-500,,,,,,11236.0,40.641474,-73.898254,18.0,46.0,990.0,3230949.0,3082220001.0,Canarsie                                                                   
184,P.S. M094 |  BATTERY PARK CITY SCHOOL |  55 BATTERY PLACE CONSOLIDATED LOCATION,,,3C,251-500,,,,,,10016.0,40.74428,-73.972591,6.0,4.0,8601.0,1089385.0,1009670002.0,Turtle Bay-East Midtown                                                    
185,P.S. 034 Franklin D. Roosevelt,0.0,1.0,3C,251-500,0.27,0.9,1.67,0.63,0.44,10027.0,40.81027,-73.957482,9.0,7.0,19701.0,1055890.0,1018500002.0,Morningside Heights                                                        
186,P.S. 309 The George E. Wibecan Preparatory Academy |Excellence Girls Charter School |794 MONROE STREET CONSOLIDATED LOCATION,0.0,0.0,8C,1501-1750,0.66,3.26,7.31,1.77,1.74,11219.0,40.632478,-74.007645,10.0,38.0,120.0,3141434.0,3057290024.0,Sunset Park East                                                           
187,PASSAGES ACADEMY AT BELMONT(BN),0.0,1.0,2C,1-250,0.24,0.71,1.71,0.51,0.32,11220.0,40.639571,-74.01976,7.0,38.0,72.0,3143927.0,3057990038.0,Sunset Park West                                                           
188,P.S. 040 George W. Carver |  Gotham Professional Arts Academy |  265 RALPH AVENUE CONSOLIDATED LOCATION,3.0,0.0,4C,501-750,0.28,1.11,1.74,0.75,0.53,11233.0,40.680463,-73.922264,3.0,41.0,379.0,3041214.0,3015180001.0,Stuyvesant Heights                                                         
189, Christopher Avenue Community School |Leadership Preparatory Ocean Hill Charter School  | 51 CHRISTOPHER AVENUE CONSOLIDATED LOCATION,1.0,0.0,7C,1251-1500,0.64,3.02,5.77,1.72,1.54,11232.0,40.650785,-74.008105,7.0,38.0,82.0,3337158.0,3007230025.0,Sunset Park West                                                           
190,P.S. 287 Bailey K. Ashford,1.0,0.0,2C,1-250,0.24,0.71,1.71,0.51,0.32,11224.0,40.574411,-73.99194,13.0,47.0,342.0,3189538.0,3070540045.0,Seagate-Coney Island                                                       
191,P.S. 274 Kosciusko,0.0,0.0,3C,251-500,0.27,0.9,1.67,0.63,0.44,11212.0,40.656068,-73.907245,16.0,42.0,922.0,3082940.0,3036360007.0,Brownsville                                                                
192,P.S. 145 Andrew Jackson,0.0,0.0,4C,501-750,0.28,1.11,1.74,0.75,0.53,11206.0,40.705204,-73.939407,1.0,34.0,485.0,3071418.0,3030910001.0,Bushwick South                                                             
193,"Essex Street Academy |  Urban Assembly Academy of Government and Law, The |  Lower Manhattan Arts Academy |  New Design High School |  High School for Dual Language and Asian Studies |  350 GRAND STREET CONSOLIDATED LOCATION",,,3C,251-500,,,,,,10002.0,40.716778,-73.989337,3.0,1.0,18.0,1005283.0,1004080030.0,Chinatown                                                                  
194,P.S. 69 Vincent D. Grippo School,0.0,0.0,5C,751-1000,0.38,1.71,2.38,0.98,0.82,11220.0,40.632379,-74.009223,10.0,38.0,120.0,3387646.0,3057350032.0,Sunset Park East                                                           
195,Coalition School for Social Change|Harlem Village Academy Leadership Charter School|2351 1ST AVENUE CONSOLIDATED LOCATION,0.0,2.0,6C,1001-1250,0.57,2.12,3.64,1.39,1.05,,,,,,,,,
196,Brooklyn School for Global Studies | Success Academy C harter School- Cobble Hill |   School for International Studies |  284 BALTIC STREET CONSOLIDATED LOCATION,,,3C,251-500,,,,,,11201.0,40.685419,-73.993351,6.0,33.0,69.0,3006401.0,3004020001.0,DUMBO-Vinegar Hill-Downtown Brooklyn-Boerum Hill                           
197,Origins High School| Professional Pathways High School| New Visions Charter High School for Advanced Math| New Visions Charter High School for the Humanities| 3000 AVENUE X CONSOLIDATED LOCATION,,,3C,251-500,,,,,,11235.0,40.594124,-73.937696,15.0,48.0,626.0,3203631.0,3074250002.0,Sheepshead Bay-Gerritsen Beach-Manhattan Beach                             
198,P.S. 371 - Lillian L. Rashkis,1.0,1.0,3C,251-500,0.27,0.9,1.67,0.63,0.44,11237.0,40.698021,-73.920711,4.0,37.0,431.0,3075072.0,3032870001.0,Bushwick North                                                             
199,P.S. 030 Hernandez/Hughes|  P.S. 138|  Success Academy Charter School - Harlem 2|  144-176 EAST 128 STREET CONSOLIDATED LOCATION,,,5C,751-1000,,,,,,10035.0,40.805953,-73.935179,11.0,9.0,242.0,1054502.0,1017760020.0,East Harlem North                                                          
200,M.S. M245 The Computer School |  The Anderson School |  P.S. 452 |  100 WEST  77 STREET CONSOLIDATED LOCATION,,,3C,251-500,,,,,,10024.0,40.780822,-73.976855,7.0,6.0,161.0,1030178.0,1011480014.0,Upper West Side                                                            
201,P.S. 127 Mckinley Park,0.0,0.0,4C,501-750,0.28,1.11,1.74,0.75,0.53,,,,,,,,,
202,I.S. 136 Charles O. Dewey | Sunset Park Prep |  4004 4 AVENUE CONSOLIDATED LOCATION,1.0,0.0,5C,751-1000,0.38,1.71,2.38,0.98,0.82,11232.0,40.651977,-74.006862,7.0,38.0,82.0,3010580.0,3007130020.0,Sunset Park West                                                           
203,P.S. 203 Floyd Bennett School,0.0,0.0,5C,751-1000,0.38,1.71,2.38,0.98,0.82,11228.0,40.614159,-74.006638,11.0,43.0,184.0,3163702.0,3062940001.0,Bensonhurst West                                                           
204,Gramercy Arts High School|THE HIGH SCHOOL FOR LANGUAGE AND DIPLOMACY|International High School at Union Square|Washington Irving Yabc|Union Square Academy for Health Sciences|Academy for Software Engineering|Success Academy Union Square (Manhattan 1)|40 IRVING PLACE CONSOLIDATED LOCATION,,,,,,,,,,10003.0,40.735494,-73.987659,6.0,2.0,50.0,1017828.0,1008720057.0,Gramercy                                                                   
205,M.S. 131 |  Pace High School |  EMMA LAZARUS HIGH SCHOOL |  100 HESTER STREET CONSOLIDATED LOCATION,,,3C,251-500,,,,,,10002.0,40.716553,-73.993092,3.0,1.0,16.0,1082489.0,1003010003.0,Chinatown                                                                  
206,P.S. 289 George V. Brower,1.0,0.0,3C,251-500,0.27,0.9,1.67,0.63,0.44,11207.0,40.67789,-73.889758,5.0,37.0,1198.0,3087821.0,3039490018.0,East New York                                                              
207,High School of  Telecommunication Arts and Technol,4.0,2.0,7C,1251-1500,0.64,3.02,5.77,1.72,1.54,,,,,,,,,
208,River East Elementary |  P.S. 206 Jose Celso Barbosa |  508 EAST 120 STREET CONSOLIDATED LOCATION,0.0,1.0,4C,501-750,0.28,1.11,1.74,0.75,0.53,10040.0,40.86079,-73.930672,12.0,10.0,285.0,1076756.0,1021720016.0,Washington Heights North                                                   
209,P.S. 282 Park Slope,0.0,1.0,5C,751-1000,0.38,1.71,2.38,0.98,0.82,11212.0,40.667377,-73.908214,16.0,41.0,912.0,3081460.0,3035440135.0,Brownsville                                                                
210,"PROGRESS High School for Professional Careers |  School for Legal Studies |  The High School for Enterprise, Business and Techn |  850 GRAND STREET CONSOLIDATED LOCATION",8.0,7.0,10C,2001-2500,1.69,7.16,17.44,3.63,3.94,11213.0,40.67944,-73.932407,3.0,36.0,271.0,3047996.0,3017010001.0,Crown Heights North                                                        
211,"Heritage School, The",1.0,2.0,3C,251-500,0.27,0.9,1.67,0.63,0.44,10029.0,40.795146,-73.948368,11.0,8.0,17401.0,1051584.0,1016140021.0,East Harlem South                                                          
212,P.S. 056 Lewis H. Latimer|  The Urban Assembly Unison School |  170 GATES AVENUE CONSOLIDATED LOCATION,,,2C,1-250,,,,,,11238.0,40.68505,-73.960659,2.0,35.0,231.0,3056874.0,3019830010.0,Clinton Hill                                                               
213,P.S. 150 Christopher,1.0,0.0,2C,1-250,0.24,0.71,1.71,0.51,0.32,11207.0,40.693293,-73.90864,4.0,37.0,437.0,3078654.0,3034060001.0,Bushwick North                                                             
214,P.S. K396,1.0,0.0,3C,251-500,0.27,0.9,1.67,0.63,0.44,11203.0,40.658939,-73.94629,9.0,40.0,810.0,3107315.0,3048150020.0,Prospect Lefferts Gardens-Wingate                                          
215,PS 503: The School of Discovery |  P.S. 506: The School of Journalism & Technology |  330 59 STREET CONSOLIDATED LOCATION,,,6C,1001-1250,,,,,,,,,,,,,,
216,Richard R. Green High School of Teaching |  Lower Manhattan Community Middle School |  26 BROADWAY CONSOLIDATED LOCATION,,,3C,251-500,,,,,,10004.0,40.70568,-74.013302,1.0,1.0,9.0,1000811.0,1000220013.0,Battery Park City-Lower Manhattan                                          
217,P.S. M226 |  Institute for Collaborative Education |  High School for Health Professions and Human Servi |  345 EAST  15TH STREET CONSOLIDATED LOCATION,4.0,3.0,10C,2001-2500,1.69,7.16,17.44,3.63,3.94,10065.0,40.765359,-73.960059,8.0,5.0,118.0,1083343.0,1014420001.0,Lenox Hill-Roosevelt Island                                                
218,West Brooklyn Community High School,0.0,0.0,2C,1-250,0.24,0.71,1.71,0.51,0.32,11208.0,40.687145,-73.878547,5.0,37.0,117601.0,3397004.0,3041020019.0,Cypress Hills-City Line                                                    
219,Franklin Delano Roosevelt High School | 5800 20 AVENUE CONSOLIDATED LOCATION,4.0,2.0,12C,3001-4000,1.13,8.47,15.33,3.8,3.07,11236.0,40.633285,-73.916735,18.0,46.0,950.0,3224139.0,3079980005.0,Canarsie                                                                   
220,P.S. 017 Henry D. Woodworth |  Conselyea Preparatory School |  208 NORTH  5 STREET CONSOLIDATED LOCATION,0.0,0.0,5C,751-1000,0.38,1.71,2.38,0.98,0.82,11211.0,40.715351,-73.956716,1.0,34.0,519.0,3062337.0,3023450001.0,North Side-South Side                                                      
221,P.S. 040 George W. Carver |  Gotham Professional Arts Academy |  265 RALPH AVENUE CONSOLIDATED LOCATION,,,3C,251-500,,,,,,11233.0,40.680463,-73.922264,3.0,41.0,379.0,3041214.0,3015180001.0,Stuyvesant Heights                                                         
222,International High School at Lafayette |  High School of Sports Management |  Kingsborough Early College School |  Life Academy High School for Film and Music |  Expeditionary Learning School for Community Leader |  2630 BENSON AVENUE CONSOLIDATED LOCATION,,,3C,251-500,,,,,,11214.0,40.594291,-73.98577,13.0,47.0,306.0,3186454.0,3068830001.0,Gravesend                                                                  
223,J.H.S 014 Shell Bank | PS 77 (Brooklyn) |CONDOLIDATED LOCATION,,,3C,251-500,,,,,,11235.0,40.593521,-73.937672,15.0,48.0,596.0,3203617.0,3074240001.0,Sheepshead Bay-Gerritsen Beach-Manhattan Beach                             
224,East Flatbush Community Research School |  Arts & Media Preparatory Academy |  Middle School of Marketing and Legal Studies |  905 WINTHROP STREET CONSOLIDATED LOCATION,,,2C,1-250,,,,,,11203.0,40.65843,-73.929076,17.0,41.0,880.0,3099733.0,3046060025.0,Prospect Lefferts Gardens-Wingate                                          
225,Brooklyn Collegiate: A College Board School l Achievement First Brownsville Charter School l 2021 BERGEN STREET CONSOLIDATED LOCATION,,,5C,751-1000,,,,,,11233.0,40.674103,-73.913273,16.0,41.0,36501.0,3038939.0,3014480001.0,Ocean Hill                                                                 
226,Kappa V |  Brooklyn Democracy Academy |Leadership Preparatory Brownsville Charter School |Metropolitan Diploma Plus High School |  985 ROCKAWAY AVENUE CONSOLIDATED LOCATION,,,5C,751-1000,,,,,,11236.0,40.634085,-73.907925,18.0,46.0,996.0,3225637.0,3080340001.0,Canarsie                                                                   
227,Midwood High School,4.0,2.0,13C,4000+,0.33,6.67,7.0,3.33,2.0,11235.0,40.581681,-73.967308,13.0,47.0,354.0,3196293.0,3072540001.0,West Brighton                                                              
228,"School of Math, Science, and Healthy Living",0.0,0.0,3C,251-500,0.27,0.9,1.67,0.63,0.44,11221.0,40.688831,-73.920906,3.0,41.0,375.0,3039676.0,3014820001.0,Stuyvesant Heights                                                         
229,P.S. 032 Samuel Mills Sprole |  M.S. 442 Carroll Gardens School for Innovation |  317 HOYT STREET CONSOLIDATED LOCATION ,1.0,0.0,4C,501-750,0.28,1.11,1.74,0.75,0.53,11231.0,40.680445,-73.991949,6.0,39.0,75.0,3395587.0,3004370001.0,Carroll Gardens-Columbia Street-Red Hook                                   
230,P.S. 77 Lower Lab School |  P.S. 198 Isador E. Ida Straus |  1700 3 AVENUE CONSOLIDATED LOCATION,,,3C,251-500,,,,,,10023.0,40.778059,-73.984449,7.0,6.0,155.0,1030351.0,1011580040.0,Lincoln Square                                                             
231,P.S. K369  - Coy L. Cox School,0.0,3.0,4C,501-750,0.28,1.11,1.74,0.75,0.53,11224.0,40.57752,-73.969517,13.0,48.0,35602.0,3196587.0,3072740107.0,West Brighton                                                              
232,P.S. 046 Edward C. Blum |  Fort Greene Preparatory Academy |  100 CLERMONT AVENUE CONSOLIDATED LOCATION,1.0,2.0,4C,501-750,0.28,1.11,1.74,0.75,0.53,11205.0,40.694633,-73.971165,2.0,35.0,187.0,3058088.0,3020450011.0,Fort Greene                                                                
233,M.S. M245 The Computer School |  The Anderson School |  P.S. 452 |  100 WEST  77 STREET CONSOLIDATED LOCATION,,,3C,251-500,,,,,,10024.0,40.780822,-73.976855,7.0,6.0,161.0,1030178.0,1011480014.0,Upper West Side                                                            
234,I.S. 528 Bea Fuller Rodgers School,1.0,0.0,2C,1-250,0.24,0.71,1.71,0.51,0.32,10019.0,40.765184,-73.992953,4.0,3.0,135.0,1083802.0,1010790029.0,Clinton                                                                    
235,M.S. 246 Walt Whitman|  FAHARI ACADEMY CHARTER SCHOOL(BS)|  72 VERONICA PLACE CONSOLIDATED LOCATION ,1.0,1.0,3C,251-500,0.27,0.9,1.67,0.63,0.44,11204.0,40.612273,-73.986713,11.0,47.0,258.0,3157466.0,3061740036.0,Bensonhurst West                                                           
236,Mott Hall IV |  Eagle Academy for Young Men II |Ocean Hill Collegiate Charter School |1137 HERKIMER STREET CONSOLIDATED LOCATION,,,4C,501-750,,,,,,11233.0,40.677805,-73.915843,16.0,41.0,301.0,3042157.0,3015500001.0,Ocean Hill                                                                 
237,P.S. 242 - The Young Diplomats Magnet Academy |  Future Leaders Institute Charter School |  134 WEST 122 STREET CONSOLIDATED LOCATION,,,2C,1-250,,,,,,10027.0,40.8063,-73.948013,10.0,9.0,220.0,1057683.0,1019060011.0,Central Harlem South                                                       
238,P.S. 233 Langston Hughes,1.0,0.0,3C,251-500,0.27,0.9,1.67,0.63,0.44,11229.0,40.60422,-73.955485,15.0,48.0,558.0,3184057.0,3068210244.0,Madison                                                                    
239,Eagle Academy for Young Men of Harlem |  KAPPA IV |  Mott Hall High School |  Bread & Roses Integrated Arts High School |  6 EDGECOMBE AVENUE CONSOLIDATED LOCATION,,,3C,251-500,,,,,,10030.0,40.817372,-73.947712,10.0,9.0,22102.0,1059460.0,1019600001.0,Central Harlem North-Polo Grounds                                          
240,New York City Lab Middle School for Collaborative |  N.Y.C. Lab School for Collaborative Studies |  N.Y.C. Museum School |  333 WEST  17 STREET CONSOLIDATED LOCATION,,,3C,251-500,,,,,,10011.0,40.742129,-74.002198,4.0,3.0,83.0,1079152.0,1007410010.0,Hudson Yards-Chelsea-Flatiron-Union Square                                 
241,"George Westinghouse Career and Technical Education|City Polytechnic High School of Engineering, Archi|105 TECH PLACE CONSOLIDATED LOCATION",,,3C,251-500,,,,,,11201.0,40.694926,-73.986015,2.0,33.0,13.0,3348041.0,3001310001.0,DUMBO-Vinegar Hill-Downtown Brooklyn-Boerum Hill                           
242,"Academy for College Preparation and Career Explora |  Academy of Hospitality and Tourism |  Erasmus Yabc |  High School for Youth and Community Development at |  High School for Service & Learning at Erasmus |  Science, Technology and Research Early College Hig |  911 FLATBUSH AVENUE CONSOLIDATED LOCATION",,,2C,1-250,,,,,,11226.0,40.649787,-73.95855,14.0,40.0,794.0,3336215.0,3051030010.0,Erasmus                                                                    
243,P.S. 030 Hernandez/Hughes|  P.S. 138|  Success Academy Charter School - Harlem 2|  144-176 EAST 128 STREET CONSOLIDATED LOCATION,1.0,0.0,8C,1501-1750,0.66,3.26,7.31,1.77,1.74,10001.0,40.748818,-73.999646,4.0,3.0,97.0,1012829.0,1007240023.0,Hudson Yards-Chelsea-Flatiron-Union Square                                 
244,P.S. 075 Emily Dickinson| M.S. 250 West Side Collaborative Middle School| 735 WEST END AVENUE CONSOLDATED LOCATION ,1.0,0.0,6C,1001-1250,0.57,2.12,3.64,1.39,1.05,10027.0,40.806768,-73.951061,10.0,9.0,220.0,1058470.0,1019260017.0,Central Harlem South                                                       
245,P.S. 020 Anna Silver,2.0,1.0,4C,501-750,0.28,1.11,1.74,0.75,0.53,10002.0,40.718895,-73.979308,3.0,2.0,2201.0,1004070.0,1003350001.0,Lower East Side                                                            
246,47 The American Sign Language and English Secondar |  The 47 American Sign Language & English Lower Scho |  223 EAST 23 STREET CONSOLIDATED LOCATION,,,2C,1-250,,,,,,10010.0,40.738548,-73.982455,6.0,2.0,64.0,,,Gramercy                                                                   
247,The High School of Fashion Industries,10.0,0.0,8C,1501-1750,0.66,3.26,7.31,1.77,1.74,10013.0,40.7244,-74.004625,2.0,3.0,37.0,1007378.0,1004910016.0,SoHo-TriBeCa-Civic Center-Little Italy                                     
248,Success Academy Charter School Harlem 1 | 34 West 118 Street,0.0,0.0,3C,251-500,0.27,0.9,1.67,0.63,0.44,10040.0,40.860412,-73.927936,12.0,10.0,283.0,1064149.0,1021730001.0,Washington Heights North                                                   
249,The Brooklyn School for Math and Research |  Academy for Environmental Leadership |  Bushwick School for Social Justice |  Academy of Urban Planning |  400 IRVING AVENUE CONSOLIDATED LOCATION,3.0,0.0,6C,1001-1250,0.57,2.12,3.64,1.39,1.05,,,,,,,,,
250,School of Science & Technology |  P.S. K315 |  2310 GLENWOOD ROAD CONSOLIDATED LOCATION,3.0,0.0,7C,1251-1500,0.64,3.02,5.77,1.72,1.54,11210.0,40.633232,-73.954655,14.0,45.0,772.0,3205780.0,3075510026.0,Flatbush                                                                   
251,The Urban Assembly School for Emergency Management|Manhattan Early College School for Advertising|Urban Assembly Maker Academy|Murry Bergtraum High School for Business Careers|411 PEARL STREET CONSOLIDATED LOCATION,,,3C,251-500,,,,,,10038.0,40.711442,-74.000851,1.0,1.0,29.0,1001388.0,1001130100.0,Chinatown                                                                  
252,Yorkville Community School,0.0,0.0,4C,501-750,0.28,1.11,1.74,0.75,0.53,10011.0,40.742129,-74.002198,4.0,3.0,83.0,1079152.0,1007410010.0,Hudson Yards-Chelsea-Flatiron-Union Square                                 
253,P.S. 222 Katherine R. Snyder,0.0,0.0,5C,751-1000,0.38,1.71,2.38,0.98,0.82,11204.0,40.634875,-73.981528,12.0,44.0,230.0,3125676.0,3053620021.0,Borough Park                                                               
254,P.S. 217 Colonel David Marcus School,0.0,0.0,6C,1001-1250,0.57,2.12,3.64,1.39,1.05,11208.0,40.670724,-73.874208,5.0,42.0,1118.0,3095977.0,3042780001.0,East New York                                                              
255,P.S. 307 Daniel Hale Williams |  Satellite West Middle School |  209 YORK STREET CONSOLIDATED LOCATION,,,2C,1-250,,,,,,11201.0,40.701343,-73.982314,2.0,33.0,21.0,3000158.0,3000560007.0,DUMBO-Vinegar Hill-Downtown Brooklyn-Boerum Hill                           
256,Thomas Jefferson Yabc |  FDNY High School for Fire and Life Safety |  High School for Civil Rights |  Performing Arts and Technology High School |  World Academy for Total Community Health High Scho |  400 PENNSYLVANIA AVENUE CONSOLIDATED LOCATION,,,,,,,,,,11207.0,40.667456,-73.894747,5.0,42.0,1156.0,3084440.0,3037880001.0,East New York (Pennsylvania Ave)                                           
257,Brooklyn College Academy,0.0,0.0,4C,501-750,0.28,1.11,1.74,0.75,0.53,,,,,,,,,
258,P.S. 238 Anne Sullivan,0.0,0.0,4C,501-750,0.28,1.11,1.74,0.75,0.53,11224.0,40.578188,-73.99203,13.0,47.0,330.0,3188221.0,3069650140.0,Seagate-Coney Island                                                       
259,Forsyth Satellite Academy |  Cascades High School |  198 FORSYTH STREET CONSOLIDATED LOCATION,,,2C,1-250,,,,,,10038.0,40.711442,-74.000851,1.0,1.0,29.0,1001388.0,1001130100.0,Chinatown                                                                  
260,The Urban Assembly School for Green Careers|The Global Learning Collaborative|Innovation Diploma Plus|FRANK McCOURT HIGH SCHOOL|Success Academy Charter School - Upper West|145 WEST  84 STREET CONSOLIDATED LOCATION,,,3C,251-500,,,,,,10003.0,40.732447,-73.983031,6.0,2.0,48.0,1020419.0,1009220008.0,Gramercy                                                                   
261,J.H.S. 104 Simon Baruch,1.0,3.0,6C,1001-1250,0.57,2.12,3.64,1.39,1.05,10029.0,40.791881,-73.946558,11.0,8.0,172.0,1051991.0,1016330013.0,East Harlem South                                                          
262,P.S. 026 Jesse Owens |  Frederick Douglass Academy IV Secondary School |  Madiba Prep Middle School |1014 LAFAYETTE AVENUE CONSOLIDATED LOCATION,,,2C,1-250,,,,,,11221.0,40.692126,-73.931731,3.0,36.0,291.0,3393805.0,3016160001.0,Stuyvesant Heights                                                         
263,P.S. 345 Patrolman Robert Bolden,1.0,0.0,4C,501-750,0.28,1.11,1.74,0.75,0.53,11239.0,40.64726,-73.881114,5.0,42.0,105804.0,3098294.0,3044520025.0,Starrett City                                                              
264,P.S./ I.S. 155 Nicholas Herkimer,1.0,0.0,3C,251-500,0.27,0.9,1.67,0.63,0.44,11205.0,40.695417,-73.959571,3.0,33.0,1237.0,3054671.0,3018970013.0,Bedford                                                                    
265,P.S. 016 Leonard Dunkly|  Williamsburg Collegiate Charter School|  157 WILSON STREET CONSOLIDATED LOCATION,,,2C,1-250,,,,,,11211.0,40.706023,-73.961476,1.0,33.0,535.0,3059906.0,3021770001.0,Williamsburg                                                               
266,P.S. 221 Toussaint L'Ouverture,2.0,1.0,3C,251-500,0.27,0.9,1.67,0.63,0.44,11234.0,40.613317,-73.938871,18.0,46.0,646.0,3212254.0,3077060001.0,Georgetown-Marine Park-Bergen Beach-Mill Basin                             
267,"School for Human Rights, The |  School for Democracy and  Leadership |  International Arts Business School |  High School for Public Service: Heroes  of Tomorro |  Brooklyn Institute for Liberal Arts |  600 KINGSTON AVENUE CONSOLIDATED LOCATION",,,3C,251-500,,,,,,11203.0,40.658893,-73.942458,9.0,40.0,810.0,3107227.0,3048110001.0,Prospect Lefferts Gardens-Wingate                                          
268,P.S. 038 The Pacific,0.0,0.0,4C,501-750,0.28,1.11,1.74,0.75,0.53,11217.0,40.685264,-73.982639,2.0,33.0,39.0,3001183.0,3001910001.0,DUMBO-Vinegar Hill-Downtown Brooklyn-Boerum Hill                           
269,Academy for Young Writers |  Spring Creek Community School |  1065 ELTON STREET CONSOLIDATED LOCATION,,,3C,251-500,,,,,,11208.0,40.657459,-73.874756,5.0,42.0,1070.0,3413878.0,3044490001.0,East New York                                                              
270,M.S. 328 - Manhattan Middle School for Scientific |WHIN Music Community |  401 WEST 164 STREET CONSOLIDATED LOCATION,,,2C,1-250,,,,,,10025.0,40.802917,-73.965613,7.0,7.0,195.0,1056676.0,1018800013.0,Morningside Heights                                                        
271,P.S. 025 Eubie Blake School |  Success Academy Charter School - Bed Stuy 3 |  787 LAFAYETTE AVENUE CONSOLIDATED LOCATION,,,2C,1-250,,,,,,11221.0,40.691037,-73.941342,3.0,36.0,281.0,3049858.0,3017870014.0,Stuyvesant Heights                                                         
272,P.S. 092 Adrian Hegeman,1.0,1.0,3C,251-500,0.27,0.9,1.67,0.63,0.44,11226.0,40.656046,-73.953742,9.0,40.0,802.0,3115866.0,3050490055.0,Prospect Lefferts Gardens-Wingate                                          
273,P.S. 177 The Marlboro,0.0,0.0,5C,751-1000,0.38,1.71,2.38,0.98,0.82,11233.0,40.675024,-73.915778,16.0,41.0,303.0,3038718.0,3014400056.0,Ocean Hill                                                                 
274,"J.H.S. 218 James P. Sinnott|The School for Classics: An Academy of Thinkers, W|Invictus Preparatory Charter School|370 FOUNTAIN AVENUE CONSOLIDATED LOCATION",,,3C,251-500,,,,,,11212.0,40.659288,-73.922919,17.0,41.0,886.0,3101168.0,3046480001.0,Rugby-Remsen Village                                                       
275,M.S. 256 Academic & Athletic Excellence |  Community Action School - MS 258 |  P.S. 333 Manhattan School for Children |  154 WEST  93 STREET CONSOLIDATED LOCATION,0.0,0.0,6C,1001-1250,0.57,2.12,3.64,1.39,1.05,10029.0,40.788952,-73.944538,11.0,8.0,164.0,1052384.0,1016520016.0,East Harlem South                                                          
276,P.S. 370 |  Home Instruction - Brooklyn |  3000 WEST 1 STREET CONSOLIDATED LOCATION,,,,,,,,,,11224.0,40.57752,-73.969517,13.0,48.0,35602.0,3196587.0,3072740107.0,West Brighton                                                              
277,P.S. 197 - The Kings Highway Academy |  I. S. 381 |  1599 EAST  22 STREET CONSOLIDATED LOCATION,1.0,0.0,4C,501-750,0.28,1.11,1.74,0.75,0.53,11210.0,40.612623,-73.951906,14.0,48.0,546.0,3182169.0,3067690018.0,Midwood                                                                    
278,P.S. 155 William Paca |  Renaissance School of the Arts |  319 EAST 117 STREET CONSOLIDATED LOCATION,,,2C,1-250,,,,,,10035.0,40.797302,-73.936365,11.0,8.0,188.0,1052986.0,1016890005.0,East Harlem North                                                          
279,J.H.S. 054 Booker T. Washington,1.0,1.0,5C,751-1000,0.38,1.71,2.38,0.98,0.82,10002.0,40.713684,-73.986336,3.0,1.0,201.0,1003223.0,1002690041.0,Lower East Side                                                            
280,IS 364 ANNEX(BN),0.0,0.0,3C,251-500,0.27,0.9,1.67,0.63,0.44,11238.0,40.676094,-73.97038,8.0,35.0,163.0,3029060.0,3011640057.0,Prospect Heights                                                           
281,Dr. Susan S. McKinney Secondary School of the Arts,2.0,0.0,3C,251-500,0.27,0.9,1.67,0.63,0.44,11203.0,40.657131,-73.928018,17.0,41.0,866.0,3100292.0,3046230028.0,Rugby-Remsen Village                                                       
282,New Heights Middle School|ACHIEVEMENT FIRST CROWN HEIGHTS CHARTER SCHOOL(BS)|790 EAST NEW YORK AVENUE CONSOLIDATED LOCATION,0.0,3.0,7C,1251-1500,0.64,3.02,5.77,1.72,1.54,11203.0,40.636455,-73.933582,17.0,45.0,836.0,3114526.0,3050220002.0,East Flatbush-Farragut                                                     
283,P.S. 041 Greenwich Village,0.0,0.0,4C,501-750,0.28,1.11,1.74,0.75,0.53,10002.0,40.715905,-73.990895,3.0,1.0,16.0,1003998.0,1003090001.0,Chinatown                                                                  
284,P.S. 242 - The Young Diplomats Magnet Academy |  Future Leaders Institute Charter School |  134 WEST 122 STREET CONSOLIDATED LOCATION,,,3C,251-500,,,,,,10027.0,40.8063,-73.948013,10.0,9.0,220.0,1057683.0,1019060011.0,Central Harlem South                                                       
285,Frederick Douglass Academy VII High School |  Teachers Preparatory High School |  226 BRISTOL STREET CONSOLIDATED LOCATION,,,3C,251-500,,,,,,,,,,,,,,
286,Brooklyn Generation School |  Brooklyn Theatre Arts High School |  Victory Collegiate High School |  Brooklyn Bridge Academy |  Academy for Conservation and the Environment |  South Shore Educational Complex Yabc |  6565 FLATLANDS AVENUE CONSOLIDATED LOCATION,,,3C,251-500,,,,,,11236.0,40.633285,-73.916735,18.0,46.0,950.0,3224139.0,3079980005.0,Canarsie                                                                   
287,"Urban Assembly High School of Music and Art |  Science Skills Center High School for Science, Tec |  Brooklyn International High School |  49 FLATBUSH AVENUE EXTENSION CONSOLIDATED LOCATION",4.0,3.0,6C,1001-1250,0.57,2.12,3.64,1.39,1.05,11217.0,40.686499,-73.979649,2.0,33.0,39.0,3331754.0,3001740001.0,DUMBO-Vinegar Hill-Downtown Brooklyn-Boerum Hill                           
288,P.S. 191 Paul Robeson,3.0,0.0,2C,1-250,0.24,0.71,1.71,0.51,0.32,11204.0,40.629303,-73.979995,12.0,44.0,476.0,3128909.0,3054450001.0,Borough Park                                                               
289,P.S. 146 |  Brooklyn Secondary School for Collaborative Studie |  610 HENRY STREET CONSOLIDATED LOCATION,4.0,2.0,7C,1251-1500,0.64,3.02,5.77,1.72,1.54,11231.0,40.68007,-74.001377,6.0,39.0,63.0,3336036.0,3003690001.0,Carroll Gardens-Columbia Street-Red Hook                                   
290,J.H.S. 162 The Willoughby,0.0,0.0,3C,251-500,0.27,0.9,1.67,0.63,0.44,11214.0,40.607234,-74.007199,11.0,43.0,180.0,3167623.0,3063990026.0,Bath Beach                                                                 
291,"High School for Arts, Imagination and Inquiry |  Urban Assembly School for Media Studies, The |  High School for Law, Advocacy and Community Justic |  High School of Arts and Technology |  Manhattan / Hunter Science High School |  122 AMSTERDAM AVENUE CONSOLIDATED LOCATION",,,3C,251-500,,,,,,10035.0,40.807383,-73.939433,11.0,9.0,206.0,1054156.0,1017520022.0,Central Harlem North-Polo Grounds                                          
292,P.S. 173 |  Harbor Heights |  306 FORT WASHINGTON AVENUE CONSOLIDATED LOCATION,0.0,0.0,4C,501-750,0.28,1.11,1.74,0.75,0.53,10034.0,40.866706,-73.923948,12.0,10.0,291.0,1064900.0,1022340007.0,Marble Hill-Inwood                                                         
293,"Brooklyn Community High School of Communication, A |  Brooklyn Prospect Charter School Downtown |  Brooklyn High School for Leadership and Community |  300 WILLOUGHBY AVENUE CONSOLIDATED LOCATION",,,3C,251-500,,,,,,11205.0,40.692642,-73.958794,3.0,33.0,235.0,3055165.0,3019260010.0,Clinton Hill                                                               
294,Brooklyn Arts and Science Elementary School |Explore Exceed Charter School |443 ST MARKS AVENUE CONSOLIDATED LOCATION,0.0,2.0,5C,751-1000,0.38,1.71,2.38,0.98,0.82,11238.0,40.676774,-73.960058,8.0,35.0,305.0,3028281.0,3011480050.0,Crown Heights North                                                        
295,P.S. 89 |  I.S. 289 |  201 WARREN STREET CONSOLIDATED LOCATION,0.0,0.0,4C,501-750,0.28,1.11,1.74,0.75,0.53,10032.0,40.839305,-73.936159,12.0,10.0,249.0,1076741.0,1021120058.0,Washington Heights South                                                   
296,P.S. K077 |  M.S. K266 - Park Place Community Middle School |  M.S. K266 - Park Place Community Middle School,1.0,0.0,3C,251-500,0.27,0.9,1.67,0.63,0.44,11212.0,40.666518,-73.924057,16.0,41.0,900.0,3080779.0,3035080012.0,Brownsville                                                                
297,P.S. 279 Herman Schreiber,0.0,0.0,3C,251-500,0.27,0.9,1.67,0.63,0.44,,,,,,,,,
298,P.S. K225 - The Eileen E. Zaglin |  P.S. K771 |  1075 OCEAN VIEW AVENUE CONSOLIDATED LOCATION,1.0,2.0,5C,751-1000,0.38,1.71,2.38,0.98,0.82,11235.0,40.579737,-73.956329,13.0,48.0,61004.0,3245498.0,3087120056.0,Brighton Beach                                                             
299,P.S. 373 - Brooklyn Transition Center,2.0,1.0,3C,251-500,0.27,0.9,1.67,0.63,0.44,11207.0,40.669719,-73.892822,5.0,42.0,1158.0,3084348.0,3037740016.0,East New York (Pennsylvania Ave)                                           
300,P.S. 195 Manhattan Beach,0.0,0.0,3C,251-500,0.27,0.9,1.67,0.63,0.44,11206.0,40.708723,-73.940002,1.0,34.0,485.0,3071024.0,3030460001.0,Bushwick South                                                             
301,P.S. 129 John H. Finley,0.0,0.0,3C,251-500,0.27,0.9,1.67,0.63,0.44,10013.0,40.718903,-73.998438,2.0,1.0,41.0,1003086.0,1002360038.0,SoHo-TriBeCa-Civic Center-Little Italy                                     
302,P.S. 200 Benson School,0.0,0.0,7C,1251-1500,0.64,3.02,5.77,1.72,1.54,11228.0,40.618676,-74.012722,10.0,43.0,166.0,3162973.0,3062780022.0,Dyker Heights                                                              
303,The School For Future Leaders,0.0,0.0,3C,251-500,0.27,0.9,1.67,0.63,0.44,11234.0,40.621413,-73.908987,18.0,46.0,69602.0,3236665.0,3083930001.0,Georgetown-Marine Park-Bergen Beach-Mill Basin                             
304,P.S. 153 Homecrest,0.0,0.0,4C,501-750,0.28,1.11,1.74,0.75,0.53,11215.0,40.657472,-73.97618,7.0,39.0,171.0,3121871.0,3052570001.0,Windsor Terrace                                                            
305,P.S./I.S. 323 |  Mott Hall Bridges Academy |  210 CHESTER STREET CONSOLIDATED LOCATION,,,2C,1-250,,,,,,11209.0,40.620957,-74.03015,10.0,43.0,60.0,3413664.0,3060620141.0,Bay Ridge                                                                  
306,The Math & Science Exploratory School |  Brooklyn High School of the Arts |  345 DEAN STREET CONSOLIDATED LOCATION,1.0,2.0,7C,1251-1500,0.64,3.02,5.77,1.72,1.54,11207.0,40.674135,-73.89643,5.0,37.0,1144.0,3083660.0,3037040001.0,East New York (Pennsylvania Ave)                                           
307,P.S. 125 Ralph Bunche|Columbia Secondary School|KIPP STAR College Prep Charter School|425 WEST 123 STREET CONSOLIDATED LOCATION,,,4C,501-750,,,,,,10027.0,40.810511,-73.955997,9.0,7.0,20901.0,1059526.0,1019640012.0,Morningside Heights                                                        
308,J.H.S 014 Shell Bank | PS 77 (Brooklyn) |CONDOLIDATED LOCATION,0.0,5.0,4C,501-750,0.28,1.11,1.74,0.75,0.53,11235.0,40.593521,-73.937672,15.0,48.0,596.0,3203617.0,3074240001.0,Sheepshead Bay-Gerritsen Beach-Manhattan Beach                             
309,P.S. 249 The Caton,0.0,1.0,5C,751-1000,0.38,1.71,2.38,0.98,0.82,11206.0,40.707104,-73.945475,1.0,34.0,505.0,3071199.0,3030600001.0,East Williamsburg                                                          
310,I.S. 171 Abraham Lincoln |  Highland Park Community School |  528 RIDGEWOOD AVENUE CONSOLIDATED LOCATION,,,3C,251-500,,,,,,11232.0,40.657914,-74.000652,7.0,38.0,101.0,3009847.0,3006690001.0,Sunset Park West                                                           
311,W. H. Maxwell Career and Technical Education High,1.0,1.0,3C,251-500,0.27,0.9,1.67,0.63,0.44,11214.0,40.604879,-73.994404,11.0,47.0,288.0,3165232.0,3063290032.0,Bensonhurst West                                                           
312,PS 503: The School of Discovery |  P.S. 506: The School of Journalism & Technology |  330 59 STREET CONSOLIDATED LOCATION,,,5C,751-1000,,,,,,,,,,,,,,
313,New Utrecht High School | NEW UTRECHT EVENING HS M/W(BS)  ,2.0,0.0,12C,3001-4000,1.13,8.47,15.33,3.8,3.07,11211.0,40.712184,-73.939722,1.0,34.0,485.0,3325733.0,3030160001.0,Bushwick South                                                             
314,Middle School for Art and Philosophy|  KINGS COLLEGIATE CHARTER SCHOOL(BS)|  1084 LENOX ROAD CONSOLIDATED LOCATION,,,2C,1-250,,,,,,11212.0,40.658295,-73.920109,17.0,41.0,886.0,3101840.0,3046690037.0,Rugby-Remsen Village                                                       
315,J.H.S. 220 John J. Pershing,0.0,0.0,7C,1251-1500,0.64,3.02,5.77,1.72,1.54,11213.0,40.663701,-73.936049,9.0,35.0,355.0,3038372.0,3014230014.0,Crown Heights South                                                        
316,P.S. 380 John Wayne Elementary,0.0,0.0,4C,501-750,0.28,1.11,1.74,0.75,0.53,11237.0,40.697781,-73.919777,4.0,37.0,431.0,3075413.0,3032980001.0,Bushwick North                                                             
317,John Dewey High School | John Dewey GED |50 Avenue X,7.0,2.0,10C,2001-2500,1.69,7.16,17.44,3.63,3.94,11237.0,40.69737,-73.913171,4.0,37.0,433.0,3413715.0,3033440136.0,Bushwick North                                                             
318,P.S. 212 Midtown West |  Professional Performing Arts High School |  328 WEST  48 STREET CONSOLIDATED LOCATION,,,4C,501-750,,,,,,10036.0,40.761448,-73.988019,4.0,3.0,127.0,1025092.0,1010380014.0,Clinton                                                                    
319,P.S. 159 Isaac Pitkin,0.0,0.0,5C,751-1000,0.38,1.71,2.38,0.98,0.82,11219.0,40.637322,-73.999215,12.0,44.0,220.0,3138276.0,3056530021.0,Borough Park                                                               
320,P.S. 120 Carlos Tapia,0.0,0.0,3C,251-500,0.27,0.9,1.67,0.63,0.44,11204.0,40.623273,-73.978822,12.0,44.0,464.0,3253281.0,3054951101.0,Borough Park                                                               
321,P.S. 152 Dyckman Valley,0.0,0.0,4C,501-750,0.28,1.11,1.74,0.75,0.53,10031.0,40.826295,-73.946845,9.0,7.0,233.0,1081834.0,1020780019.0,Hamilton Heights                                                           
322,P.S. 167 The Parkway|  New Bridges Elementary|  1025 EASTERN PARKWAY CONSOLIDATED LOCATION,,,3C,251-500,,,,,,11232.0,40.64629,-74.001903,7.0,38.0,92.0,3011002.0,3007320001.0,Sunset Park East                                                           
323,I.S. 98 Bay Academy,3.0,0.0,8C,1501-1750,0.66,3.26,7.31,1.77,1.74,11235.0,40.583125,-73.954037,15.0,48.0,608.0,3246958.0,3087670026.0,Sheepshead Bay-Gerritsen Beach-Manhattan Beach                             
324,M.S. 131 |  Pace High School |  EMMA LAZARUS HIGH SCHOOL |  100 HESTER STREET CONSOLIDATED LOCATION,5.0,5.0,7C,1251-1500,0.64,3.02,5.77,1.72,1.54,10033.0,40.850626,-73.934377,12.0,10.0,271.0,1063947.0,1021650026.0,Washington Heights North                                                   
325,Coalition School for Social Change|Harlem Village Academy Leadership Charter School|2351 1ST AVENUE CONSOLIDATED LOCATION,,,2C,1-250,,,,,,10035.0,40.798884,-73.933319,11.0,8.0,194.0,1054786.0,1017970100.0,East Harlem North                                                          
326,"Henry Street School for International Studies |  University Neighborhood Middle School |  Collaborative Academy of Science, Technology, & La | Manhattan Charter School II  |220 HENRY STREET CONSOLIDATED LOCATION",,,2C,1-250,,,,,,10002.0,40.713684,-73.986336,3.0,1.0,201.0,1003223.0,1002690041.0,Lower East Side                                                            
327,P.S. 149 Danny Kaye,1.0,0.0,4C,501-750,0.28,1.11,1.74,0.75,0.53,11212.0,40.66896,-73.904726,16.0,41.0,908.0,3084012.0,3037440009.0,Brownsville                                                                
328,P.S. 116 Mary Lindley Murray,0.0,0.0,4C,501-750,0.28,1.11,1.74,0.75,0.53,10029.0,40.79307,-73.942303,11.0,8.0,170.0,1052433.0,1016560100.0,East Harlem South                                                          
329,Gramercy Arts High School|THE HIGH SCHOOL FOR LANGUAGE AND DIPLOMACY|International High School at Union Square|Washington Irving Yabc|Union Square Academy for Health Sciences|Academy for Software Engineering|Success Academy Union Square (Manhattan 1)|40 IRVING PLACE CONSOLIDATED LOCATION,,,3C,251-500,,,,,,10040.0,40.855954,-73.927051,12.0,10.0,277.0,1076751.0,1021600018.0,Washington Heights North                                                   
330,P.S. 140 Nathan Straus,2.0,1.0,3C,251-500,0.27,0.9,1.67,0.63,0.44,10002.0,40.718383,-73.984452,3.0,1.0,1402.0,1004080.0,1003430001.0,Lower East Side                                                            
331,"School for Human Rights, The |  School for Democracy and  Leadership |  International Arts Business School |  High School for Public Service: Heroes  of Tomorro |  Brooklyn Institute for Liberal Arts |  600 KINGSTON AVENUE CONSOLIDATED LOCATION",,,3C,251-500,,,,,,11203.0,40.658893,-73.942458,9.0,40.0,810.0,3107227.0,3048110001.0,Prospect Lefferts Gardens-Wingate                                          
332,P.S. 185 - The Early Childhood Discovery and Design l Harlem Link Charter School | 20 West 112 Street,0.0,0.0,2C,1-250,0.24,0.71,1.71,0.51,0.32,10040.0,40.852631,-73.927604,12.0,10.0,277.0,1076750.0,1021590051.0,Washington Heights North                                                   
333,Amistad Dual Language School |  Muscota |  4862 BROADWAY CONSOLIDATED LOCATION,,,3C,251-500,,,,,,10040.0,40.859243,-73.927792,12.0,10.0,283.0,1064128.0,1021710036.0,Washington Heights North                                                   
334,The East Village Community School |  The Children's Workshop School |  610 EAST  12 STREET CONSOLIDATED LOCATION,,,3C,251-500,,,,,,10009.0,40.727892,-73.978525,3.0,2.0,28.0,1079053.0,1003940012.0,Lower East Side                                                            
335,P.S. 099 Isaac Asimov,0.0,1.0,5C,751-1000,0.38,1.71,2.38,0.98,0.82,11230.0,40.621565,-73.965595,12.0,44.0,454.0,3171478.0,3065350011.0,Ocean Parkway South                                                        
336,I.S. 303 Herbert S. Eisenberg | Coney Island Preparatory Public Charter School |Rachel Carson High School for Coastal Studies |  521 WEST AVENUE CONSOLIDATED LOCATION,0.0,1.0,10C,2001-2500,1.69,7.16,17.44,3.63,3.94,11224.0,40.582533,-73.973132,13.0,47.0,354.0,3196292.0,3072500025.0,West Brighton                                                              
337,International High School at Prospect Heights |  The High School for Global Citizenship |  Brooklyn Academy of Science and the Environment |  Brooklyn School for Music & Theatre |  883 CLASSON AVENUE CONSOLIDATED LOCATION,,,2C,1-250,,,,,,11225.0,40.670349,-73.961695,9.0,35.0,213.0,3029686.0,3011870001.0,Crown Heights South                                                        
338,THE SCIENCE AND MEDICINE MIDDLE SCHOOL,2.0,0.0,3C,251-500,0.27,0.9,1.67,0.63,0.44,11217.0,40.687257,-73.983579,2.0,33.0,41.0,3000567.0,3001720055.0,DUMBO-Vinegar Hill-Downtown Brooklyn-Boerum Hill                           
339,I.S. 218 Salome Urena |  City College Academy of the Arts |  Middle School 322 |  4600 BROADWAY CONSOLIDATED LOCATION,,,4C,501-750,,,,,,10027.0,40.815458,-73.952908,9.0,9.0,21703.0,1084067.0,1019570001.0,Manhattanville                                                             
340,I.S. 318 Eugenio Maria De Hostos,2.0,0.0,7C,1251-1500,0.64,3.02,5.77,1.72,1.54,11211.0,40.709674,-73.954217,1.0,34.0,527.0,3063189.0,3024240001.0,North Side-South Side                                                      
341,P.S. 319,0.0,0.0,2C,1-250,0.24,0.71,1.71,0.51,0.32,11225.0,40.665035,-73.959031,9.0,35.0,325.0,3034356.0,3013010001.0,Crown Heights South                                                        
342,Forsyth Satellite Academy |  Cascades High School |  198 FORSYTH STREET CONSOLIDATED LOCATION,0.0,1.0,13C,4000+,0.33,6.67,7.0,3.33,2.0,10038.0,40.711442,-74.000851,1.0,1.0,29.0,1001388.0,1001130100.0,Chinatown                                                                  
343,Brooklyn Arbor Elementary School |  325 SOUTH  3 STREET CONSOLIDATED LOCATION,0.0,0.0,4C,501-750,0.28,1.11,1.74,0.75,0.53,11211.0,40.709647,-73.95465,1.0,34.0,527.0,3063188.0,3024230001.0,North Side-South Side                                                      
344,John Ericsson Middle School 126| Citizens of the World Charter School 1 Williamsbur| Northside Charter High School| 424 LEONARD STREET CONSOLIDATED LOCATION,,,3C,251-500,,,,,,11222.0,40.719819,-73.948625,1.0,33.0,499.0,3067788.0,3027120001.0,Greenpoint                                                                 
345,P.S. 254 Dag Hammarskjold,1.0,0.0,5C,751-1000,0.38,1.71,2.38,0.98,0.82,11229.0,40.604349,-73.955528,15.0,48.0,558.0,3184034.0,3068210123.0,Madison                                                                    
346,P.S. 028 The Warren Prep Academy,0.0,0.0,2C,1-250,0.24,0.71,1.71,0.51,0.32,11233.0,40.678049,-73.92032,3.0,41.0,301.0,3042090.0,3015480019.0,Ocean Hill                                                                 
347,P.S. 235 Lenox School,1.0,1.0,7C,1251-1500,0.64,3.02,5.77,1.72,1.54,11234.0,40.615998,-73.912989,18.0,46.0,698.0,3326821.0,3084640001.0,Georgetown-Marine Park-Bergen Beach-Mill Basin                             
348,"Brooklyn Community High School of Communication, A |  Brooklyn Prospect Charter School Downtown |  Brooklyn High School for Leadership and Community |  300 WILLOUGHBY AVENUE CONSOLIDATED LOCATION",5.0,4.0,4C,501-750,0.28,1.11,1.74,0.75,0.53,11205.0,40.692642,-73.958794,3.0,33.0,235.0,3055165.0,3019260010.0,Clinton Hill                                                               
349,P.S. 100 The Coney Island School,0.0,0.0,5C,751-1000,0.38,1.71,2.38,0.98,0.82,11224.0,40.57732,-73.971313,13.0,48.0,35602.0,3196595.0,3072810001.0,West Brighton                                                              
350,Brooklyn Brownstone School |  M.S. 035 Stephen Decatur |  272 MACDONOUGH STREET CONSOLIDATED LOCATION,0.0,3.0,3C,251-500,0.27,0.9,1.67,0.63,0.44,11233.0,40.681896,-73.935963,3.0,36.0,273.0,3047054.0,3016740011.0,Stuyvesant Heights                                                         
351,Boys and Girls High School |  Research and Service High School | NELSON MANDELA HIGH SCHOOL |1700 FULTON STREET CONSOLIDATED LOCATION,,,3C,251-500,,,,,,11213.0,40.67944,-73.932407,3.0,36.0,271.0,3047996.0,3017010001.0,Crown Heights North                                                        
352,P.S. 244 Richard R. Green|  Brooklyn Science and Engineering Academy|  5404 TILDEN AVENUE CONSOLIDATED LOCATION,,,4C,501-750,,,,,,11203.0,40.648423,-73.925948,17.0,45.0,946.0,3104513.0,3047390001.0,Rugby-Remsen Village                                                       
353,Andries Hudde,2.0,2.0,5C,751-1000,0.38,1.71,2.38,0.98,0.82,11225.0,40.669339,-73.960675,9.0,35.0,213.0,3378160.0,3011880001.0,Crown Heights South                                                        
354,P.S. 013 Roberto Clemente| Achievement First East New York Charter School| 557 PENNSYLVANIA AVENUE CONDOLIDATED LOCATION,0.0,0.0,7C,1251-1500,0.64,3.02,5.77,1.72,1.54,11207.0,40.663673,-73.893754,5.0,42.0,1126.0,3085070.0,3038230001.0,East New York (Pennsylvania Ave)                                           
355,P.S. 188 Michael E. Berdy,1.0,2.0,3C,251-500,0.27,0.9,1.67,0.63,0.44,11212.0,40.665565,-73.926246,17.0,41.0,892.0,3099537.0,3045990001.0,Brownsville                                                                
356,"P.S. 145, The Bloomingdale School |  West Prep Academy |  150 WEST 105 STREET CONSOLIDATED LOCATION",,,2C,1-250,,,,,,10025.0,40.799178,-73.964842,7.0,7.0,189.0,1076625.0,1018590001.0,Upper West Side                                                            
357,Brooklyn Preparatory High School |  Williamsburg High School for Architecture and Desi |  Williamsburg Preparatory School |  257 NORTH  6 STREET CONSOLIDATED LOCATION,7.0,4.0,9C,1751-2000,0.9,3.5,7.25,2.55,1.45,11217.0,40.683559,-73.98027,2.0,33.0,39.0,3001190.0,3001920013.0,DUMBO-Vinegar Hill-Downtown Brooklyn-Boerum Hill                           
358,P.S. 154 Harriet Tubman|Democracy Prep Endurance Charter School|250 WEST 127 STREET CONSOLIDATED LOCATION,,,2C,1-250,,,,,,10031.0,40.826295,-73.946845,9.0,7.0,233.0,1081834.0,1020780019.0,Hamilton Heights                                                           
359,East New York Elementary School of Excellence |  East New York Middle School of Excellence |  605 SHEPHERD AVENUE CONSOLIDATED LOCATION,,,4C,501-750,,,,,,11208.0,40.669387,-73.879614,5.0,42.0,1164.0,3090219.0,3040690001.0,East New York                                                              
360,M.S. 328 - Manhattan Middle School for Scientific |WHIN Music Community |  401 WEST 164 STREET CONSOLIDATED LOCATION,,,,,,,,,,10025.0,40.802917,-73.965613,7.0,7.0,195.0,1056676.0,1018800013.0,Morningside Heights                                                        
361,Multicultural High School |Academy of Innovative Technology |Brooklyn Lab School |Cypress Hills Collegiate Preparatory School |The Urban Assembly School for Collaborative Health |999 JAMAICA AVENUE CONSOLIDATED LOCATION,,,3C,251-500,,,,,,11208.0,40.691146,-73.868328,5.0,37.0,1180.0,3090738.0,3040940001.0,park-cemetery-etc-Brooklyn                                                 
362,P.S. 192 - The Magnet School for Math and Science,0.0,0.0,4C,501-750,0.28,1.11,1.74,0.75,0.53,11210.0,40.621507,-73.950473,14.0,45.0,754.0,3208461.0,3076250001.0,Midwood                                                                    
363,Ralph A. Fabrizio School,0.0,0.0,6C,1001-1250,0.57,2.12,3.64,1.39,1.05,11208.0,40.68618,-73.869625,5.0,37.0,1184.0,3092456.0,3041340020.0,Cypress Hills-City Line                                                    
364,"Brooklyn Latin School, The |  Green School: An Academy for Environmental Careers |  Lyons Community School 223 GRAHAM AVENUE CONSOLIDATED LOCATION",0.0,1.0,7C,1251-1500,0.64,3.02,5.77,1.72,1.54,11206.0,40.709941,-73.943641,1.0,34.0,505.0,3070825.0,3030250001.0,East Williamsburg                                                          
365,Multicultural High School |Academy of Innovative Technology |Brooklyn Lab School |Cypress Hills Collegiate Preparatory School |The Urban Assembly School for Collaborative Health |999 JAMAICA AVENUE CONSOLIDATED LOCATION,,,2C,1-250,,,,,,11208.0,40.691146,-73.868328,5.0,37.0,1180.0,3090738.0,3040940001.0,park-cemetery-etc-Brooklyn                                                 
